time,methane_concentration,light_intensity,absorption_peak,relativity,pcb_temperature,laser_temperature,tec_current,laser_housing_temperature,SNR,status,ver,err_code,flight_status,longitude,latitude,altitude,relative_altitude,home_distance,speed,dis_code,distance,dest_longitude,dest_latitude,uav_pitch,uav_roll,uav_yaw,gimbal_pitch,gimbal_roll,gimbal_yaw,camera_focal_length,camera_zoom,file_name
2026-03-10_00:55:57:164,0,46,763,993,32,24,146,26,0,0,19,0,2,-75.6987850,45.3853646,  31.6,   0.0,0.0, 0.1,0, 8.3,-75.6987957,45.3854389,-2.5,-2.0,-8.8,-0.6,-2.0,-5.8,8,8,
2026-03-10_00:55:57:264,0,42,763,993,32,24,148,26,5,0,19,0,2,-75.6987849,45.3853646,  31.6,   0.0,0.0, 0.1,0, 8.3,-75.6987958,45.3854388,-1.8,-2.2,-8.8,-0.7,-2.1,-5.9,8,8,
2026-03-10_00:55:57:364,0,41,763,990,32,24,163,26,7,0,19,0,2,-75.6987848,45.3853646,  31.6,   0.0,0.0, 0.1,0, 8.3,-75.6987957,45.3854388,-1.6,-2.6,-8.8,-0.7,-2.1,-5.9,8,8,
2026-03-10_00:55:57:464,0,44,763,994,32,24,163,26,0,0,19,0,2,-75.6987846,45.3853646,  31.6,   0.0,0.0, 0.1,0, 8.3,-75.6987955,45.3854388,-1.9,-2.8,-8.7,-0.7,-2.2,-5.9,8,8,
2026-03-10_00:55:57:564,0,44,763,994,32,24,163,26,0,0,19,0,2,-75.6987845,45.3853646,  31.6,   0.0,0.0, 0.1,0, 8.3,-75.6987952,45.3854388,-2.4,-3.1,-8.8,-0.7,-2.1,-5.8,8,8,
2026-03-10_00:55:57:664,0,40,763,994,32,24,142,26,5,0,19,0,2,-75.6987844,45.3853646,  32.1,   0.6,0.1, 0.1,0,75.3,-75.6988814,45.3860383,-2.5,-3.3,-8.8,-0.7,-2.2,-5.8,8,8,
2026-03-10_00:55:57:764,0,40,763,993,32,24,149,26,1,0,19,0,2,-75.6987843,45.3853646,  32.1,   0.6,0.1, 0.1,0,75.3,-75.6988813,45.3860383,-2.3,-3.4,-8.8,-0.7,-2.1,-5.8,8,8,
2026-03-10_00:55:57:864,0,39,763,994,32,24,163,26,4,0,19,0,2,-75.6987842,45.3853646,  32.1,   0.6,0.1, 0.0,0,75.3,-75.6988812,45.3860383,-2.0,-3.2,-8.8,-0.7,-2.1,-5.8,8,8,
2026-03-10_00:55:57:964,0,40,763,992,32,24,163,26,0,0,19,0,2,-75.6987841,45.3853646,  32.1,   0.6,0.1, 0.0,0,75.3,-75.6988828,45.3860382,-1.8,-3.0,-8.7,-0.7,-2.2,-5.9,8,8,
2026-03-10_00:55:58:064,0,44,763,993,32,24,157,26,2,0,19,0,2,-75.6987841,45.3853646,  32.1,   0.6,0.1, 0.0,0,75.3,-75.6988828,45.3860382,-1.6,-2.9,-8.6,-0.7,-2.1,-5.9,8,8,
2026-03-10_00:55:58:165,0,47,763,995,32,24,148,26,1,0,19,0,2,-75.6987841,45.3853646,  32.1,   0.6,0.1, 0.0,0,75.3,-75.6988827,45.3860382,-1.3,-2.9,-8.5,-0.7,-2.1,-5.9,8,8,
2026-03-10_00:55:58:265,0,47,763,995,32,24,148,26,1,0,19,0,2,-75.6987840,45.3853646,  32.1,   0.6,0.1, 0.0,0,75.3,-75.6988794,45.3860385,-1.3,-2.9,-8.5,-0.7,-2.1,-5.7,8,8,
2026-03-10_00:55:58:465,792,53,763,991,32,24,160,26,11,0,19,0,2,-75.6987840,45.3853647,  32.1,   0.6,0.1, 0.0,0,75.3,-75.6988811,45.3860384,-1.0,-1.6,-8.3,-0.7,-2.0,-5.8,8,8,
2026-03-10_00:55:58:565,239,51,763,993,32,24,160,26,2,0,19,0,2,-75.6987841,45.3853647,  32.1,   0.6,0.1, 0.1,0,75.3,-75.6988828,45.3860383,-0.6,-1.0,-8.4,-0.6,-2.1,-5.9,8,8,
2026-03-10_00:55:58:665,0,51,763,994,32,24,148,26,0,0,19,0,2,-75.6987840,45.3853647,  32.1,   0.5,0.1, 0.1,0,46.0,-75.6988423,45.3857763,-0.2,-1.1,-8.5,-0.6,-2.0,-5.7,8,8,
2026-03-10_00:55:58:765,0,46,763,992,32,24,148,26,2,0,19,0,2,-75.6987839,45.3853646,  32.1,   0.5,0.1, 0.1,0,46.0,-75.6988443,45.3857761,-0.3,-2.0,-8.6,-0.6,-2.0,-5.9,8,8,
2026-03-10_00:55:58:865,0,47,763,993,32,24,157,26,2,0,19,0,2,-75.6987838,45.3853646,  32.1,   0.5,0.1, 0.1,0,46.0,-75.6988420,45.3857762,-1.3,-3.1,-8.7,-0.7,-2.2,-5.7,8,8,
2026-03-10_00:55:58:965,268,55,763,994,32,24,163,26,3,0,19,0,2,-75.6987836,45.3853645,  32.1,   0.5,0.1, 0.1,0,46.0,-75.6988429,45.3857760,-2.5,-3.6,-8.7,-0.7,-2.1,-5.8,8,8,
2026-03-10_00:55:59:065,268,55,763,994,32,24,163,26,3,0,19,0,2,-75.6987835,45.3853645,  32.1,   0.5,0.1, 0.1,0,46.0,-75.6988428,45.3857760,-3.1,-3.3,-8.7,-0.7,-2.1,-5.8,8,8,
2026-03-10_00:55:59:165,278,51,763,993,32,24,158,26,5,0,19,0,2,-75.6987840,45.3853647,  32.1,   0.5,0.1, 0.0,0,46.0,-75.6988810,45.3860384,-2.6,-2.6,-8.8,-0.7,-2.1,-5.8,8,8,20260310_005559.jpg
2026-03-10_00:55:59:265,0,49,763,995,32,24,145,26,4,0,19,0,2,-75.6987834,45.3853644,  32.1,   0.5,0.1, 0.0,0,46.0,-75.6988437,45.3857759,-1.2,-2.2,-8.8,-0.6,-2.2,-5.9,8,8,
2026-03-10_00:55:59:365,0,47,763,992,32,24,151,26,3,0,19,0,2,-75.6987833,45.3853644,  32.1,   0.5,0.1, 0.0,0,46.0,-75.6988426,45.3857760,-0.1,-2.2,-8.8,-0.6,-2.1,-5.8,8,8,
2026-03-10_00:55:59:465,0,48,763,994,32,24,164,26,7,0,19,0,2,-75.6987833,45.3853644,  32.1,   0.5,0.1, 0.1,0,46.0,-75.6988425,45.3857760,-0.1,-2.3,-8.8,-0.7,-2.1,-5.8,8,8,
2026-03-10_00:55:59:565,0,44,763,990,32,24,161,26,2,0,19,0,2,-75.6987832,45.3853644,  32.1,   0.5,0.2, 0.1,0,46.0,-75.6988435,45.3857759,-0.9,-2.5,-8.7,-0.7,-2.1,-5.9,8,8,
2026-03-10_00:55:59:665,0,43,763,992,32,24,149,26,2,0,19,0,2,-75.6987832,45.3853644,  32.0,   0.5,0.2, 0.1,0,45.7,-75.6988430,45.3857732,-1.9,-2.6,-8.6,-0.8,-2.1,-5.9,8,8,
2026-03-10_00:55:59:765,0,44,763,993,32,24,151,26,1,0,19,0,2,-75.6987831,45.3853643,  32.0,   0.5,0.2, 0.0,0,45.7,-75.6988430,45.3857731,-2.6,-2.4,-8.6,-0.8,-2.2,-5.9,8,8,
2026-03-10_00:55:59:865,0,44,763,993,32,24,151,26,1,0,19,0,2,-75.6987831,45.3853643,  32.0,   0.5,0.2, 0.0,0,45.7,-75.6988409,45.3857733,-2.4,-2.5,-8.6,-0.7,-2.1,-5.7,8,8,
2026-03-10_00:55:59:966,0,45,763,992,32,24,158,26,3,0,19,0,2,-75.6987830,45.3853643,  32.0,   0.5,0.2, 0.1,0,45.7,-75.6988429,45.3857732,-1.4,-2.6,-8.5,-0.7,-2.2,-5.9,8,8,
2026-03-10_00:56:00:066,0,48,763,994,32,24,163,26,2,0,19,0,2,-75.6987830,45.3853644,  32.0,   0.5,0.2, 0.0,0,45.7,-75.6988419,45.3857733,-0.5,-2.5,-8.5,-0.6,-2.1,-5.8,8,8,
2026-03-10_00:56:00:166,0,49,763,992,32,24,155,26,0,0,19,0,2,-75.6987829,45.3853644,  32.0,   0.5,0.2, 0.0,0,45.7,-75.6988429,45.3857732,-0.3,-2.5,-8.4,-0.6,-2.1,-5.9,8,8,
2026-03-10_00:56:00:266,0,47,763,991,32,24,146,26,0,0,19,0,2,-75.6987829,45.3853644,  32.0,   0.5,0.2, 0.0,0,45.7,-75.6988418,45.3857733,-0.9,-2.7,-8.4,-0.7,-2.1,-5.8,8,8,
2026-03-10_00:56:00:366,0,44,763,993,32,24,151,26,1,0,19,0,2,-75.6987829,45.3853644,  32.0,   0.5,0.2, 0.0,0,45.7,-75.6988418,45.3857733,-1.7,-2.7,-8.4,-0.7,-2.1,-5.8,8,8,
2026-03-10_00:56:00:466,0,47,763,993,32,24,166,26,5,0,19,0,2,-75.6987828,45.3853645,  32.0,   0.5,0.2, 0.0,0,45.7,-75.6988427,45.3857733,-2.0,-2.5,-8.4,-0.7,-2.1,-5.9,8,8,
2026-03-10_00:56:00:566,0,45,763,991,32,24,163,26,0,0,19,0,2,-75.6987828,45.3853645,  32.0,   0.5,0.2, 0.0,0,45.7,-75.6988426,45.3857733,-1.4,-2.5,-8.5,-0.8,-2.2,-5.9,8,8,
2026-03-10_00:56:00:666,0,45,763,991,32,24,163,26,0,0,19,0,2,-75.6987828,45.3853645,  32.1,   0.5,0.2, 0.0,0,44.8,-75.6988405,45.3857653,-0.9,-2.5,-8.5,-0.6,-2.1,-5.8,8,8,
2026-03-10_00:56:00:766,0,42,763,991,32,24,151,26,3,0,19,0,2,-75.6987827,45.3853646,  32.1,   0.5,0.2, 0.0,0,44.8,-75.6988405,45.3857654,-0.5,-2.4,-8.5,-0.6,-2.1,-5.8,8,8,
2026-03-10_00:56:00:866,0,44,763,992,32,24,149,26,8,0,19,0,2,-75.6987827,45.3853646,  32.1,   0.5,0.2, 0.0,0,44.8,-75.6988415,45.3857653,-0.6,-2.3,-8.4,-0.6,-2.1,-5.9,8,8,
2026-03-10_00:56:00:966,0,42,763,991,32,24,161,26,4,0,19,0,2,-75.6987827,45.3853646,  32.1,   0.5,0.2, 0.0,0,44.8,-75.6988414,45.3857654,-0.8,-2.3,-8.4,-0.7,-2.1,-5.9,8,8,
2026-03-10_00:56:01:066,0,40,763,989,32,24,161,26,0,0,19,0,2,-75.6987827,45.3853646,  32.1,   0.5,0.2, 0.0,0,44.8,-75.6988414,45.3857654,-1.3,-2.5,-8.4,-0.7,-2.1,-5.9,8,8,
2026-03-10_00:56:01:166,0,42,764,991,32,24,158,26,5,0,19,0,2,-75.6987826,45.3853646,  32.1,   0.5,0.2, 0.0,0,44.8,-75.6988403,45.3857655,-1.5,-2.7,-8.3,-0.7,-2.1,-5.8,8,8,
2026-03-10_00:56:01:266,0,44,763,990,32,24,148,26,6,0,19,0,2,-75.6987826,45.3853646,  32.1,   0.5,0.2, 0.0,0,44.8,-75.6988413,45.3857654,-1.4,-2.8,-8.2,-0.7,-2.1,-5.9,8,8,
2026-03-10_00:56:01:366,0,44,763,990,32,24,148,26,6,0,19,0,2,-75.6987826,45.3853646,  32.1,   0.5,0.2, 0.0,0,44.8,-75.6988403,45.3857654,-1.0,-2.6,-8.2,-0.7,-2.1,-5.8,8,8,
2026-03-10_00:56:01:466,0,42,763,990,32,23,149,26,1,0,19,0,2,-75.6987826,45.3853646,  32.1,   0.5,0.2, 0.0,0,44.8,-75.6988413,45.3857653,-0.6,-2.2,-8.3,-0.6,-2.1,-5.9,8,8,
2026-03-10_00:56:01:566,0,46,763,991,32,24,163,26,0,0,19,0,2,-75.6987826,45.3853646,  32.1,   0.5,0.2, 0.0,0,44.8,-75.6988413,45.3857653,-0.6,-2.2,-8.4,-0.7,-2.1,-5.9,8,8,
2026-03-10_00:56:01:667,0,47,763,991,32,24,163,26,3,0,19,0,2,-75.6987826,45.3853646,  32.1,   0.5,0.2, 0.0,0,44.0,-75.6988402,45.3857582,-0.7,-2.4,-8.4,-0.7,-2.1,-5.9,8,8,
2026-03-10_00:56:01:767,0,44,763,991,32,24,148,26,2,0,19,0,2,-75.6987825,45.3853645,  32.1,   0.5,0.2, 0.0,0,44.0,-75.6988402,45.3857581,-1.0,-2.8,-8.4,-0.6,-2.1,-5.9,8,8,
2026-03-10_00:56:01:867,0,44,763,990,32,24,151,26,0,0,19,0,2,-75.6987825,45.3853645,  32.1,   0.5,0.2, 0.0,0,44.0,-75.6988402,45.3857581,-1.2,-2.8,-8.4,-0.7,-2.1,-5.9,8,8,
2026-03-10_00:56:01:967,0,44,763,993,32,24,160,26,5,0,19,0,2,-75.6987825,45.3853645,  32.1,   0.5,0.2, 0.0,0,44.0,-75.6988392,45.3857582,-1.3,-2.6,-8.4,-0.7,-2.1,-5.8,8,8,
2026-03-10_00:56:02:067,0,44,763,992,32,24,164,26,1,0,19,0,2,-75.6987825,45.3853645,  32.1,   0.5,0.2, 0.0,0,44.0,-75.6988391,45.3857582,-1.3,-2.3,-8.4,-0.8,-2.1,-5.8,8,8,
2026-03-10_00:56:02:167,0,44,763,992,32,24,164,26,1,0,19,0,2,-75.6987825,45.3853645,  32.1,   0.5,0.2, 0.0,0,44.0,-75.6988402,45.3857581,-1.1,-2.3,-8.3,-0.7,-2.1,-5.9,8,8,
2026-03-10_00:56:02:267,0,43,763,993,32,24,157,26,3,0,19,0,2,-75.6987825,45.3853645,  32.1,   0.5,0.2, 0.0,0,44.0,-75.6988402,45.3857581,-0.9,-2.8,-8.3,-0.7,-2.1,-5.9,8,8,
2026-03-10_00:56:02:367,0,40,763,991,32,24,151,26,4,0,19,0,2,-75.6987825,45.3853645,  32.1,   0.5,0.2, 0.0,0,44.0,-75.6988382,45.3857582,-1.1,-3.1,-8.3,-0.7,-2.2,-5.7,8,8,
2026-03-10_00:56:02:467,0,43,763,992,32,24,154,26,1,0,19,0,2,-75.6987825,45.3853645,  32.1,   0.5,0.2, 0.0,0,44.0,-75.6988392,45.3857581,-1.3,-3.0,-8.2,-0.8,-2.1,-5.8,8,8,
2026-03-10_00:56:02:567,0,41,763,993,32,24,164,26,2,0,19,0,2,-75.6987826,45.3853645,  32.1,   0.5,0.2, 0.0,0,44.0,-75.6988402,45.3857581,-1.2,-2.5,-8.1,-0.7,-2.1,-5.9,8,8,
2026-03-10_00:56:02:667,0,40,763,994,32,24,164,26,0,0,19,0,2,-75.6987826,45.3853645,  32.1,   0.5,0.2, 0.0,0,44.0,-75.6988403,45.3857581,-0.8,-2.2,-8.2,-0.7,-2.1,-5.9,8,8,
2026-03-10_00:56:02:767,0,40,763,991,32,24,146,26,3,0,19,0,2,-75.6987826,45.3853645,  32.1,   0.5,0.2, 0.0,0,44.1,-75.6988405,45.3857590,-0.5,-2.0,-8.2,-0.6,-2.0,-5.9,8,8,
2026-03-10_00:56:02:867,0,41,763,992,32,24,151,26,5,0,19,0,2,-75.6987826,45.3853645,  32.1,   0.5,0.2, 0.0,0,44.1,-75.6988395,45.3857590,-0.7,-2.2,-8.2,-0.6,-2.1,-5.8,8,8,
2026-03-10_00:56:02:967,0,41,763,992,32,24,151,26,5,0,19,0,2,-75.6987827,45.3853645,  32.1,   0.5,0.2, 0.0,0,44.1,-75.6988395,45.3857590,-1.1,-2.5,-8.2,-0.7,-2.1,-5.8,8,8,
2026-03-10_00:56:03:067,0,39,764,993,32,24,160,26,1,0,19,0,2,-75.6987827,45.3853645,  32.1,   0.5,0.2, 0.0,0,44.1,-75.6988405,45.3857590,-1.3,-2.7,-8.2,-0.7,-2.2,-5.9,8,8,
2026-03-10_00:56:03:167,0,38,763,989,32,24,163,26,3,0,19,0,2,-75.6987827,45.3853645,  32.1,   0.5,0.2, 0.0,0,44.1,-75.6988395,45.3857590,-1.1,-2.6,-8.3,-0.7,-2.1,-5.8,8,8,
2026-03-10_00:56:03:267,0,37,763,992,32,24,161,26,4,0,19,0,2,-75.6987828,45.3853645,  32.1,   0.5,0.2, 0.1,0,44.1,-75.6988406,45.3857589,-0.8,-2.2,-8.4,-0.7,-2.1,-5.9,8,8,
2026-03-10_00:56:03:368,0,38,763,992,32,24,149,26,2,0,19,0,2,-75.6987828,45.3853645,  32.1,   0.5,0.2, 0.1,0,44.1,-75.6988397,45.3857590,-1.0,-1.8,-8.4,-0.7,-2.0,-5.8,8,8,
2026-03-10_00:56:03:468,0,39,763,990,32,24,155,26,0,0,19,0,2,-75.6987829,45.3853645,  32.1,   0.5,0.2, 0.0,0,44.1,-75.6988407,45.3857590,-1.2,-1.6,-8.4,-0.7,-2.0,-5.9,8,8,
2026-03-10_00:56:03:568,0,37,763,990,32,24,166,26,0,0,19,0,2,-75.6987829,45.3853645,  32.1,   0.5,0.2, 0.0,0,44.1,-75.6988407,45.3857590,-1.2,-1.6,-8.5,-0.7,-2.0,-5.9,8,8,
2026-03-10_00:56:03:668,0,37,763,990,32,24,166,26,0,0,19,0,2,-75.6987830,45.3853645,  32.1,   0.5,0.2, 0.0,0,44.1,-75.6988408,45.3857590,-1.2,-1.8,-8.5,-0.7,-2.0,-5.9,8,8,
2026-03-10_00:56:03:768,0,37,763,990,32,23,160,26,1,0,19,0,2,-75.6987830,45.3853645,  32.1,   0.5,0.2, 0.0,0,45.0,-75.6988410,45.3857671,-1.0,-2.0,-8.5,-0.7,-2.0,-5.8,8,8,
2026-03-10_00:56:03:868,0,38,763,989,32,24,148,26,6,0,19,0,2,-75.6987830,45.3853645,  32.1,   0.5,0.2, 0.0,0,45.0,-75.6988421,45.3857671,-0.4,-2.2,-8.6,-0.6,-2.1,-5.9,8,8,
2026-03-10_00:56:03:968,0,37,763,991,32,24,149,26,1,0,19,0,2,-75.6987831,45.3853645,  32.1,   0.5,0.2, 0.0,0,45.0,-75.6988411,45.3857671,-0.1,-2.2,-8.6,-0.6,-2.1,-5.8,8,8,
2026-03-10_00:56:04:068,0,38,763,992,32,24,160,26,2,0,19,0,2,-75.6987831,45.3853645,  32.1,   0.5,0.2, 0.0,0,45.0,-75.6988411,45.3857671,-0.6,-1.7,-8.7,-0.6,-2.0,-5.8,8,8,
2026-03-10_00:56:04:168,0,38,763,989,32,24,167,26,7,0,19,0,2,-75.6987831,45.3853645,  32.1,   0.5,0.2, 0.0,0,45.0,-75.6988421,45.3857670,-1.3,-1.7,-8.8,-0.8,-2.0,-5.9,8,8,
2026-03-10_00:56:04:268,0,37,763,989,32,24,161,26,0,0,19,0,2,-75.6987831,45.3853645,  32.1,   0.5,0.2, 0.0,0,45.0,-75.6988421,45.3857670,-1.5,-2.2,-8.9,-0.8,-2.1,-5.9,8,8,
2026-03-10_00:56:04:368,0,36,763,994,32,24,151,26,5,0,19,0,2,-75.6987832,45.3853645,  32.1,   0.5,0.2, 0.0,0,45.0,-75.6988411,45.3857671,-1.2,-2.5,-8.9,-0.7,-2.1,-5.8,8,8,
2026-03-10_00:56:04:468,0,36,763,994,32,24,151,26,5,0,19,0,2,-75.6987832,45.3853645,  32.1,   0.5,0.2, 0.0,0,45.0,-75.6988421,45.3857670,-0.7,-2.3,-8.9,-0.7,-2.1,-5.9,8,8,
2026-03-10_00:56:04:568,0,36,763,990,32,24,152,26,3,0,19,0,2,-75.6987832,45.3853645,  32.1,   0.5,0.2, 0.0,0,45.0,-75.6988422,45.3857671,-0.5,-1.8,-8.9,-0.6,-2.0,-5.9,8,8,
2026-03-10_00:56:04:668,0,37,763,992,32,24,169,26,1,0,19,0,2,-75.6987832,45.3853645,  32.1,   0.5,0.2, 0.0,0,45.0,-75.6988422,45.3857671,-0.5,-1.3,-8.9,-0.6,-2.0,-5.9,8,8,
2026-03-10_00:56:04:768,0,36,763,991,32,24,164,26,8,0,19,0,2,-75.6987832,45.3853645,  32.1,   0.5,0.2, 0.0,0,45.7,-75.6988431,45.3857733,-0.8,-1.6,-8.9,-0.6,-2.1,-5.9,8,8,
2026-03-10_00:56:04:868,0,36,763,989,32,24,151,26,0,0,19,0,2,-75.6987831,45.3853645,  32.1,   0.5,0.2, 0.0,0,45.7,-75.6988420,45.3857734,-1.4,-2.2,-8.8,-0.8,-2.0,-5.8,8,8,
2026-03-10_00:56:04:968,0,37,763,992,32,24,151,26,2,0,19,0,2,-75.6987831,45.3853645,  32.1,   0.5,0.2, 0.0,0,45.7,-75.6988430,45.3857733,-1.7,-2.7,-8.9,-0.7,-2.1,-5.9,8,8,
2026-03-10_00:56:05:069,0,37,763,989,32,24,151,26,5,0,19,0,2,-75.6987831,45.3853645,  32.1,   0.5,0.2, 0.0,0,45.7,-75.6988429,45.3857733,-1.7,-2.6,-8.9,-0.8,-2.1,-5.9,8,8,
2026-03-10_00:56:05:169,0,40,763,989,32,24,166,26,0,0,19,0,2,-75.6987831,45.3853645,  32.1,   0.5,0.2, 0.0,0,45.7,-75.6988420,45.3857734,-1.3,-2.2,-8.8,-0.7,-2.1,-5.8,8,8,
2026-03-10_00:56:05:269,0,40,763,989,32,24,166,26,0,0,19,0,2,-75.6987831,45.3853645,  32.1,   0.5,0.2, 0.0,0,45.7,-75.6988430,45.3857733,-0.9,-1.9,-8.5,-0.7,-2.0,-5.9,8,8,
2026-03-10_00:56:05:369,0,44,763,992,32,24,160,26,7,0,19,0,2,-75.6987831,45.3853645,  32.1,   0.5,0.2, 0.0,0,45.7,-75.6988430,45.3857733,-0.7,-1.9,-8.2,-0.7,-2.1,-5.9,8,8,
2026-03-10_00:56:05:469,0,49,763,993,32,24,148,26,1,0,19,0,2,-75.6987831,45.3853645,  32.1,   0.5,0.2, 0.0,0,45.7,-75.6988430,45.3857733,-1.0,-2.2,-8.1,-0.8,-2.1,-5.9,8,8,
2026-03-10_00:56:05:669,53,59,763,995,32,24,166,26,0,0,19,0,2,-75.6987831,45.3853645,  32.4,   0.9,0.2, 0.0,0,46.0,-75.6988433,45.3857759,-2.0,-2.5,-8.1,-0.7,-2.1,-5.9,8,8,
2026-03-10_00:56:05:769,112,61,763,993,32,24,164,26,1,0,19,0,2,-75.6987831,45.3853645,  32.4,   0.9,0.2, 0.0,0,46.0,-75.6988433,45.3857760,-1.4,-2.3,-8.3,-0.7,-2.1,-5.9,8,8,
2026-03-10_00:56:05:869,185,60,763,993,32,24,154,26,2,0,19,0,2,-75.6987831,45.3853645,  32.4,   0.9,0.2, 0.0,0,46.0,-75.6988434,45.3857760,-0.7,-2.3,-8.3,-0.6,-2.1,-5.9,8,8,
2026-03-10_00:56:05:969,19,55,763,994,32,24,148,26,0,0,19,0,2,-75.6987831,45.3853645,  32.4,   0.9,0.2, 0.0,0,46.0,-75.6988434,45.3857760,-0.5,-2.1,-8.0,-0.6,-2.2,-5.9,8,8,
2026-03-10_00:56:06:069,19,55,763,994,32,24,148,26,0,0,19,0,2,-75.6987832,45.3853646,  32.4,   0.9,0.2, 0.0,0,46.0,-75.6988435,45.3857760,-0.7,-1.9,-7.9,-0.7,-2.0,-5.9,8,8,
2026-03-10_00:56:06:169,56,54,763,993,32,24,154,26,2,0,19,0,2,-75.6987831,45.3853645,  32.4,   0.9,0.1, 0.0,0,46.0,-75.6988423,45.3857760,-1.1,-1.9,-7.9,-0.7,-2.0,-5.8,8,8,20260310_005606.jpg
2026-03-10_00:56:06:269,0,24,763,981,32,24,163,26,0,0,19,0,2,-75.6987832,45.3853646,  32.4,   0.9,0.1, 0.1,0,46.0,-75.6988435,45.3857761,-1.5,-1.8,-7.9,-0.7,-2.1,-5.9,8,8,
2026-03-10_00:56:06:369,0,16,763,992,32,24,160,26,2,0,19,0,2,-75.6987833,45.3853646,  32.4,   0.9,0.1, 0.1,0,46.0,-75.6988436,45.3857761,-1.4,-1.6,-8.0,-0.7,-2.1,-5.9,8,8,
2026-03-10_00:56:06:469,0,12,763,975,32,24,149,26,1,0,19,0,2,-75.6987833,45.3853647,  32.4,   0.9,0.1, 0.1,0,46.0,-75.6988436,45.3857762,-0.7,-1.3,-8.0,-0.6,-2.0,-5.9,8,8,
2026-03-10_00:56:06:569,0,9,763,975,32,24,151,26,0,0,19,0,2,-75.6987834,45.3853648,  32.4,   0.9,0.1, 0.1,0,93.5,-75.6989059,45.3862012, 0.4,-1.1,-8.1,-0.7,-2.0,-5.9,8,8,
2026-03-10_00:56:06:669,0,8,763,981,32,24,164,26,1,0,19,0,2,-75.6987834,45.3853649,  32.9,   1.3,0.1, 0.1,0,93.5,-75.6989059,45.3862013, 1.1,-1.3,-8.2,-0.7,-2.0,-5.9,8,8,
2026-03-10_00:56:06:769,0,8,763,981,32,24,164,26,1,0,19,0,2,-75.6987834,45.3853649,  32.9,   1.3,0.1, 0.0,0,93.5,-75.6989039,45.3862015, 1.0,-1.7,-8.2,-0.7,-2.0,-5.8,8,8,
2026-03-10_00:56:06:870,0,7,763,966,32,24,160,26,1,0,19,0,2,-75.6987834,45.3853650,  32.9,   1.3,0.1, 0.0,0,93.5,-75.6989059,45.3862014, 0.4,-2.6,-8.2,-0.7,-2.1,-5.9,8,8,
2026-03-10_00:56:06:970,0,7,763,934,32,24,155,26,12,0,19,0,2,-75.6987833,45.3853650,  32.9,   1.3,0.1, 0.0,0,93.5,-75.6989038,45.3862016,-0.6,-3.3,-8.2,-0.6,-2.2,-5.8,8,8,
2026-03-10_00:56:07:070,0,8,763,844,32,24,152,26,2,0,19,0,2,-75.6987834,45.3853651,  32.9,   1.3,0.1, 0.1,0,93.5,-75.6989037,45.3862016,-3.3,-3.2,-8.1,-0.8,-2.1,-5.8,8,8,
2026-03-10_00:56:07:170,0,9,763,960,32,24,157,26,0,0,19,0,2,-75.6987834,45.3853651,  32.9,   1.3,0.1, 0.2,0,93.5,-75.6989039,45.3862017,-6.0,-2.6,-8.1,-0.7,-2.1,-5.8,8,8,
2026-03-10_00:56:07:270,0,10,763,963,32,23,160,26,0,0,19,0,2,-75.6987835,45.3853652,  32.9,   1.3,0.1, 0.2,0,93.5,-75.6989061,45.3862016,-7.5,-2.1,-8.2,-0.7,-2.1,-5.9,8,8,
2026-03-10_00:56:07:370,0,14,763,977,32,24,157,26,2,0,19,0,2,-75.6987837,45.3853656,  32.9,   1.3,0.1, 0.4,0,93.5,-75.6989062,45.3862019,-8.0,-1.6,-8.3,-0.7,-2.0,-5.9,8,8,
2026-03-10_00:56:07:470,0,16,763,952,32,24,151,26,1,0,19,0,2,-75.6987839,45.3853659,  32.9,   1.3,0.2, 0.5,0,93.5,-75.6989085,45.3862022,-7.1,-1.3,-8.3,-0.7,-2.0,-6.0,8,8,
2026-03-10_00:56:07:570,0,16,763,952,32,24,151,26,1,0,19,0,2,-75.6987841,45.3853665,  32.9,   1.3,0.2, 0.6,0,93.3,-75.6989085,45.3862009,-3.2,-1.1,-8.3,-0.6,-2.0,-6.0,8,8,
2026-03-10_00:56:07:670,0,16,763,974,32,24,151,26,1,0,19,0,2,-75.6987843,45.3853670,  32.9,   1.4,0.3, 0.6,0,93.3,-75.6989067,45.3862016, 2.4,-0.8,-8.2,-0.5,-2.0,-5.9,8,8,
2026-03-10_00:56:07:770,0,17,763,993,32,24,169,26,1,0,19,0,2,-75.6987845,45.3853675,  32.9,   1.4,0.3, 0.5,0,93.3,-75.6989027,45.3862025, 6.8,-0.7,-8.1,-0.6,-2.0,-5.7,8,8,
2026-03-10_00:56:07:870,0,13,763,963,32,24,160,26,1,0,19,0,2,-75.6987846,45.3853679,  32.9,   1.4,0.4, 0.4,0,93.3,-75.6989027,45.3862028, 7.9,-0.8,-8.0,-0.7,-2.0,-5.7,8,8,
2026-03-10_00:56:07:970,0,13,763,962,32,24,157,26,0,0,19,0,2,-75.6987847,45.3853682,  32.9,   1.4,0.4, 0.2,0,93.3,-75.6989029,45.3862031, 6.1,-1.2,-8.0,-0.7,-2.0,-5.7,8,8,
2026-03-10_00:56:08:070,0,14,763,993,32,24,148,26,2,0,19,0,2,-75.6987848,45.3853684,  32.9,   1.4,0.4, 0.2,0,93.3,-75.6989049,45.3862031, 2.9,-1.5,-8.0,-0.8,-2.0,-5.8,8,8,
2026-03-10_00:56:08:170,0,15,763,988,32,24,160,26,4,0,19,0,2,-75.6987848,45.3853685,  32.9,   1.4,0.4, 0.1,0,93.3,-75.6989071,45.3862031, 0.4,-1.6,-8.2,-0.7,-2.0,-5.9,8,8,
2026-03-10_00:56:08:270,0,17,763,983,32,23,163,26,4,0,19,0,2,-75.6987848,45.3853686,  32.9,   1.4,0.4, 0.1,0,93.3,-75.6989051,45.3862033,-0.3,-2.0,-8.4,-0.6,-2.1,-5.8,8,8,
2026-03-10_00:56:08:370,0,17,763,983,32,23,163,26,4,0,19,0,2,-75.6987849,45.3853687,  32.9,   1.4,0.4, 0.1,0,93.3,-75.6989051,45.3862034,-0.2,-3.0,-8.4,-0.6,-2.1,-5.8,8,8,
2026-03-10_00:56:08:470,0,14,763,982,32,24,164,26,5,0,19,0,2,-75.6987849,45.3853688,  32.9,   1.4,0.5, 0.2,0,93.3,-75.6989073,45.3862034, 0.0,-3.8,-8.4,-0.6,-2.2,-5.9,8,8,
2026-03-10_00:56:08:570,0,14,763,962,32,24,148,26,1,0,19,0,2,-75.6987851,45.3853689,  32.9,   1.4,0.5, 0.2,0,92.9,-75.6989048,45.3862001, 0.3,-4.4,-8.3,-0.7,-2.1,-5.8,8,8,
2026-03-10_00:56:08:670,0,12,763,962,32,24,149,26,0,0,19,0,2,-75.6987853,45.3853690,  32.9,   1.3,0.5, 0.2,0,92.9,-75.6989071,45.3862000, 0.4,-4.6,-8.3,-0.7,-2.1,-5.9,8,8,
2026-03-10_00:56:08:770,0,11,763,962,32,24,161,26,0,0,19,0,2,-75.6987856,45.3853691,  32.9,   1.3,0.5, 0.2,0,92.9,-75.6989073,45.3862002, 0.4,-4.5,-8.3,-0.7,-2.1,-5.9,8,8,
2026-03-10_00:56:08:871,0,13,763,972,32,24,166,26,0,0,19,0,2,-75.6987859,45.3853692,  32.9,   1.3,0.5, 0.3,0,92.9,-75.6989077,45.3862002, 0.2,-4.1,-8.4,-0.7,-2.1,-5.9,8,8,
2026-03-10_00:56:08:971,0,12,763,987,32,24,160,26,0,0,19,0,2,-75.6987863,45.3853692,  32.9,   1.3,0.5, 0.3,0,92.9,-75.6989080,45.3862002,-0.1,-3.9,-8.3,-0.7,-2.1,-5.9,8,8,
2026-03-10_00:56:09:071,0,12,763,987,32,24,160,26,0,0,19,0,2,-75.6987867,45.3853692,  32.9,   1.3,0.5, 0.3,0,92.9,-75.6989065,45.3862004,-0.1,-4.2,-8.3,-0.6,-2.1,-5.8,8,8,
2026-03-10_00:56:09:171,0,13,763,964,32,24,152,26,5,0,19,0,2,-75.6987871,45.3853692,  32.9,   1.3,0.5, 0.4,0,92.9,-75.6989069,45.3862004,-0.0,-5.1,-8.2,-0.6,-2.2,-5.8,8,8,
2026-03-10_00:56:09:271,0,18,763,978,32,24,157,26,1,0,19,0,2,-75.6987875,45.3853692,  32.9,   1.3,0.5, 0.4,0,92.9,-75.6989092,45.3862003, 0.0,-5.8,-8.1,-0.7,-2.1,-5.9,8,8,
2026-03-10_00:56:09:371,0,24,763,980,32,24,163,26,2,0,19,0,2,-75.6987882,45.3853692,  32.9,   1.3,0.6, 0.5,0,92.9,-75.6989078,45.3862004,-0.2,-6.2,-8.1,-0.7,-2.1,-5.8,8,8,
2026-03-10_00:56:09:471,0,37,763,991,32,24,160,26,2,0,19,0,2,-75.6987888,45.3853692,  32.9,   1.3,0.6, 0.6,0,92.9,-75.6989085,45.3862004,-0.4,-5.8,-8.1,-0.6,-2.1,-5.8,8,8,
2026-03-10_00:56:09:671,290,98,763,992,32,24,154,26,9,0,19,0,2,-75.6987903,45.3853691,  32.9,   1.3,0.6, 0.6,0,86.2,-75.6989014,45.3861404,-0.3,-0.1,-8.0,-0.6,-1.9,-5.8,8,8,
2026-03-10_00:56:09:771,202,103,763,995,32,24,166,26,8,0,19,0,2,-75.6987910,45.3853691,  32.9,   1.3,0.7, 0.6,0,86.2,-75.6989022,45.3861403, 0.2, 3.6,-8.0,-0.6,-2.0,-5.8,8,8,
2026-03-10_00:56:09:871,202,103,763,995,32,24,166,26,8,0,19,0,2,-75.6987916,45.3853691,  32.9,   1.3,0.7, 0.4,0,86.2,-75.6989045,45.3861402, 0.3, 4.2,-8.0,-0.8,-2.2,-5.9,8,8,
2026-03-10_00:56:09:971,123,79,763,994,32,24,163,26,2,0,19,0,2,-75.6987920,45.3853691,  32.9,   1.3,0.7, 0.3,0,86.2,-75.6989031,45.3861403,-0.4, 2.0,-8.1,-0.6,-2.1,-5.8,8,8,
2026-03-10_00:56:10:071,0,72,763,993,32,24,157,26,0,0,19,0,2,-75.6987925,45.3853691,  32.9,   1.3,0.8, 0.3,0,86.2,-75.6989054,45.3861402,-1.8,-0.8,-8.1,-0.7,-2.2,-5.9,8,8,
2026-03-10_00:56:10:171,207,71,763,993,32,24,151,26,0,0,19,0,2,-75.6987895,45.3853692,  32.9,   1.3,0.8, 0.3,0,86.2,-75.6988987,45.3861405,-3.2,-2.6,-8.0,-0.7,-2.0,-5.9,8,8,20260310_005610.jpg
2026-03-10_00:56:10:271,0,32,763,985,32,24,157,26,4,0,19,0,2,-75.6987932,45.3853692,  32.9,   1.3,0.8, 0.4,0,86.2,-75.6989061,45.3861403,-4.2,-2.8,-7.9,-0.7,-2.2,-5.9,8,8,
2026-03-10_00:56:10:371,0,20,763,979,32,24,167,26,2,0,19,0,2,-75.6987936,45.3853694,  32.9,   1.3,0.8, 0.4,0,86.2,-75.6989065,45.3861404,-5.0,-2.0,-7.9,-0.8,-2.1,-5.9,8,8,
2026-03-10_00:56:10:471,0,9,763,945,32,24,160,26,2,0,19,0,2,-75.6987940,45.3853695,  32.9,   1.3,0.9, 0.5,0,86.2,-75.6989070,45.3861406,-5.4,-0.9,-8.0,-0.7,-2.0,-5.9,8,8,
2026-03-10_00:56:10:572,0,7,763,946,32,23,148,26,1,0,19,0,2,-75.6987945,45.3853698,  32.9,   1.3,0.9, 0.5,0,85.8,-75.6989089,45.3861372,-5.6,-0.2,-8.1,-0.7,-2.0,-6.0,8,8,
2026-03-10_00:56:10:672,0,7,763,946,32,23,148,26,1,0,19,0,2,-75.6987949,45.3853702,  32.9,   1.3,1.0, 0.6,0,85.8,-75.6989074,45.3861377,-5.0,-0.3,-8.2,-0.7,-2.0,-5.9,8,8,
2026-03-10_00:56:10:772,0,6,764,986,32,24,154,26,0,0,19,0,2,-75.6987954,45.3853707,  32.9,   1.3,1.0, 0.6,0,85.8,-75.6989079,45.3861382,-1.7,-0.4,-8.2,-0.6,-2.0,-5.9,8,8,
2026-03-10_00:56:10:872,0,7,763,978,32,24,169,26,0,0,19,0,2,-75.6987958,45.3853712,  32.9,   1.3,1.1, 0.6,0,85.8,-75.6989084,45.3861387, 3.0,-0.2,-8.1,-0.6,-2.0,-5.9,8,8,
2026-03-10_00:56:10:972,0,7,763,956,32,24,164,26,5,0,19,0,2,-75.6987962,45.3853717,  32.9,   1.3,1.2, 0.5,0,85.8,-75.6989049,45.3861394, 6.3, 0.1,-8.0,-0.6,-2.1,-5.7,8,8,
2026-03-10_00:56:11:072,0,6,763,856,32,24,151,26,2,0,19,0,2,-75.6987965,45.3853720,  32.9,   1.3,1.2, 0.4,0,85.8,-75.6989032,45.3861399, 7.0, 0.1,-8.0,-0.7,-2.1,-5.6,8,8,
2026-03-10_00:56:11:172,0,6,763,944,32,24,152,26,1,0,19,0,2,-75.6987966,45.3853721,  32.9,   1.3,1.2, 0.2,0,85.8,-75.6989052,45.3861399, 5.3,-0.3,-8.3,-0.7,-2.1,-5.7,8,8,
2026-03-10_00:56:11:272,0,6,763,817,32,24,163,26,2,0,19,0,2,-75.6987967,45.3853723,  32.9,   1.3,1.2, 0.2,0,85.8,-75.6989073,45.3861399, 2.7,-0.8,-8.6,-0.7,-2.1,-5.8,8,8,
2026-03-10_00:56:11:372,0,8,763,956,32,24,167,26,1,0,19,0,2,-75.6987968,45.3853724,  32.9,   1.3,1.3, 0.1,0,85.8,-75.6989073,45.3861400, 0.7,-0.9,-8.9,-0.8,-2.0,-5.8,8,8,
2026-03-10_00:56:11:472,0,8,763,956,32,24,167,26,1,0,19,0,2,-75.6987969,45.3853724,  32.9,   1.3,1.3, 0.1,0,85.8,-75.6989093,45.3861399,-0.0,-0.7,-9.1,-0.7,-2.0,-5.9,8,8,
2026-03-10_00:56:11:572,0,7,763,824,32,24,163,26,4,0,19,0,2,-75.6987969,45.3853726,  32.9,   1.3,1.3, 0.1,0,84.9,-75.6989063,45.3861322, 0.0,-0.5,-9.4,-0.7,-2.0,-5.8,8,8,
2026-03-10_00:56:11:672,0,6,763,972,32,24,149,26,1,0,19,0,2,-75.6987969,45.3853727,  32.8,   1.3,1.3, 0.1,0,84.9,-75.6989063,45.3861323, 0.3,-0.9,-9.5,-0.7,-2.0,-5.8,8,8,
2026-03-10_00:56:11:772,0,7,763,881,32,24,157,26,5,0,19,0,2,-75.6987969,45.3853728,  32.8,   1.3,1.3, 0.1,0,84.9,-75.6989062,45.3861324, 0.6,-1.5,-9.6,-0.7,-2.1,-5.8,8,8,
2026-03-10_00:56:11:872,0,7,763,972,32,24,163,26,4,0,19,0,2,-75.6987968,45.3853729,  32.8,   1.3,1.3, 0.1,0,84.9,-75.6989081,45.3861323, 0.6,-2.5,-9.8,-0.7,-2.0,-5.9,8,8,
2026-03-10_00:56:11:972,0,7,763,978,32,24,163,26,2,0,19,0,2,-75.6987968,45.3853729,  32.8,   1.3,1.3, 0.0,0,84.9,-75.6989080,45.3861324, 0.7,-3.4,-9.8,-0.7,-2.1,-5.9,8,8,
2026-03-10_00:56:12:072,0,8,763,981,32,24,152,26,2,0,19,0,2,-75.6987968,45.3853730,  32.8,   1.3,1.3, 0.0,0,84.9,-75.6989080,45.3861324, 0.7,-3.6,-9.9,-0.7,-2.1,-5.9,8,8,
2026-03-10_00:56:12:172,0,8,763,981,32,24,152,26,2,0,19,0,2,-75.6987968,45.3853730,  32.8,   1.3,1.3, 0.0,0,84.9,-75.6989080,45.3861324, 0.4,-2.9,-9.9,-0.7,-2.1,-5.9,8,8,
2026-03-10_00:56:12:272,0,8,763,872,32,24,154,26,4,0,19,0,2,-75.6987968,45.3853730,  32.8,   1.3,1.3, 0.0,0,84.9,-75.6989081,45.3861324, 0.1,-1.8,-10.0,-0.7,-2.0,-5.9,8,8,
2026-03-10_00:56:12:373,0,8,763,984,32,24,172,26,3,0,19,0,2,-75.6987968,45.3853729,  32.8,   1.3,1.3, 0.0,0,84.9,-75.6989081,45.3861324,-0.3,-1.0,-9.9,-0.6,-2.0,-5.9,8,8,
2026-03-10_00:56:12:473,0,7,763,838,32,24,166,26,2,0,19,0,2,-75.6987968,45.3853729,  32.8,   1.3,1.3, 0.1,0,84.9,-75.6989081,45.3861324,-0.9,-1.0,-9.9,-0.6,-2.0,-5.9,8,8,
2026-03-10_00:56:12:573,0,6,763,984,32,24,154,26,5,0,19,0,2,-75.6987967,45.3853729,  32.8,   1.3,1.3, 0.1,0,84.9,-75.6989080,45.3861323,-1.4,-1.5,-9.8,-0.7,-2.1,-5.9,8,8,
2026-03-10_00:56:12:673,0,6,763,978,32,24,154,26,3,0,19,0,2,-75.6987966,45.3853729,  32.8,   1.2,1.3, 0.1,0,84.6,-75.6989056,45.3861298,-1.6,-2.5,-9.8,-0.7,-2.1,-5.8,8,8,
2026-03-10_00:56:12:773,0,8,763,935,32,24,161,26,0,0,19,0,2,-75.6987965,45.3853729,  32.8,   1.2,1.3, 0.1,0,84.6,-75.6989073,45.3861296,-1.7,-3.2,-9.9,-0.7,-2.1,-5.9,8,8,
2026-03-10_00:56:12:873,0,7,763,969,32,24,166,26,2,0,19,0,2,-75.6987964,45.3853729,  32.8,   1.2,1.3, 0.1,0,84.6,-75.6989053,45.3861298,-1.7,-3.3,-9.9,-0.7,-2.1,-5.8,8,8,
2026-03-10_00:56:12:973,0,7,763,969,32,24,166,26,2,0,19,0,2,-75.6987963,45.3853728,  32.8,   1.2,1.3, 0.1,0,84.6,-75.6989052,45.3861297,-1.3,-3.5,-10.0,-0.7,-2.1,-5.8,8,8,
2026-03-10_00:56:13:073,0,9,763,941,32,24,163,26,3,0,19,0,2,-75.6987962,45.3853729,  32.8,   1.2,1.3, 0.0,0,84.6,-75.6989071,45.3861296,-0.6,-3.4,-10.1,-0.7,-2.1,-5.9,8,8,
2026-03-10_00:56:13:173,0,10,763,957,32,24,154,26,3,0,19,0,2,-75.6987962,45.3853729,  32.8,   1.2,1.3, 0.0,0,84.6,-75.6989052,45.3861298, 0.0,-3.1,-10.2,-0.6,-2.1,-5.8,8,8,
2026-03-10_00:56:13:273,0,14,763,972,32,24,158,26,1,0,19,0,2,-75.6987962,45.3853728,  32.8,   1.2,1.3, 0.0,0,84.6,-75.6989070,45.3861296,-0.2,-2.8,-10.1,-0.7,-2.1,-5.9,8,8,
2026-03-10_00:56:13:373,0,13,763,966,32,24,169,26,1,0,19,0,2,-75.6987961,45.3853728,  32.8,   1.2,1.2, 0.0,0,84.6,-75.6989052,45.3861297,-0.9,-3.1,-10.0,-0.6,-2.1,-5.8,8,8,
2026-03-10_00:56:13:473,0,15,763,979,32,24,164,26,1,0,19,0,2,-75.6987961,45.3853728,  32.8,   1.2,1.2, 0.0,0,84.6,-75.6989051,45.3861297,-1.8,-3.5,-9.9,-0.7,-2.1,-5.8,8,8,
2026-03-10_00:56:13:573,0,17,763,992,32,24,151,26,0,0,19,0,2,-75.6987961,45.3853728,  32.8,   1.2,1.2, 0.0,0,84.6,-75.6989070,45.3861295,-1.9,-3.6,-9.8,-0.7,-2.1,-5.9,8,8,
2026-03-10_00:56:13:673,0,19,763,978,32,24,151,26,0,0,19,0,2,-75.6987962,45.3853727,  32.7,   1.2,1.2, 0.0,0,85.0,-75.6989076,45.3861331,-1.3,-3.1,-9.7,-0.6,-2.1,-5.9,8,8,
2026-03-10_00:56:13:773,0,19,763,978,32,24,151,26,0,0,19,0,2,-75.6987962,45.3853727,  32.7,   1.2,1.2, 0.1,0,85.0,-75.6989076,45.3861330,-0.6,-2.4,-9.6,-0.7,-2.1,-5.9,8,8,
2026-03-10_00:56:13:873,0,14,763,953,32,24,169,26,0,0,19,0,2,-75.6987962,45.3853726,  32.7,   1.2,1.2, 0.1,0,85.0,-75.6989058,45.3861331,-0.3,-2.2,-9.5,-0.6,-2.1,-5.8,8,8,
2026-03-10_00:56:13:973,0,19,763,979,32,24,161,26,2,0,19,0,2,-75.6987962,45.3853726,  32.7,   1.2,1.2, 0.1,0,85.0,-75.6989058,45.3861331,-0.6,-2.4,-9.4,-0.6,-2.2,-5.8,8,8,
2026-03-10_00:56:14:073,0,19,763,981,32,24,157,26,0,0,19,0,2,-75.6987963,45.3853725,  32.7,   1.2,1.2, 0.1,0,85.0,-75.6989057,45.3861330,-1.5,-2.4,-9.3,-0.8,-2.1,-5.8,8,8,
2026-03-10_00:56:14:173,0,18,763,984,32,24,155,26,3,0,19,0,2,-75.6987963,45.3853724,  32.7,   1.2,1.2, 0.1,0,85.0,-75.6989076,45.3861328,-2.5,-2.4,-9.2,-0.7,-2.2,-5.9,8,8,
2026-03-10_00:56:14:273,0,19,763,984,32,24,161,26,0,0,19,0,2,-75.6987963,45.3853723,  32.7,   1.2,1.2, 0.1,0,85.0,-75.6989077,45.3861327,-2.8,-2.5,-9.1,-0.7,-2.1,-5.9,8,8,
2026-03-10_00:56:14:374,0,20,763,981,32,24,167,26,2,0,19,0,2,-75.6987963,45.3853723,  32.7,   1.2,1.2, 0.0,0,85.0,-75.6989057,45.3861327,-2.2,-2.7,-9.0,-0.8,-2.1,-5.8,8,8,
2026-03-10_00:56:14:474,0,22,763,987,32,24,163,26,9,0,19,0,2,-75.6987963,45.3853722,  32.7,   1.2,1.2, 0.0,0,85.0,-75.6989077,45.3861326,-1.5,-2.6,-8.8,-0.7,-2.2,-5.9,8,8,
2026-03-10_00:56:14:574,0,22,763,987,32,24,163,26,9,0,19,0,2,-75.6987963,45.3853722,  32.7,   1.2,1.2, 0.0,0,85.0,-75.6989077,45.3861325,-1.0,-2.3,-8.7,-0.7,-2.1,-5.9,8,8,
2026-03-10_00:56:14:674,0,23,763,979,32,24,157,26,5,0,19,0,2,-75.6987964,45.3853721,  32.8,   1.2,1.2, 0.1,1, 0.0,-75.6987964,45.3853721,-0.5,-2.3,-8.6,-0.6,-2.1,-5.8,8,8,
2026-03-10_00:56:14:774,0,21,763,982,32,24,157,26,1,0,19,0,2,-75.6987964,45.3853721,  32.8,   1.2,1.2, 0.1,1, 0.0,-75.6987964,45.3853721,-0.2,-2.6,-8.5,-0.6,-2.1,-5.9,8,8,
2026-03-10_00:56:14:874,0,19,763,984,32,24,167,26,1,0,19,0,2,-75.6987964,45.3853720,  32.8,   1.2,1.2, 0.1,1, 0.0,-75.6987964,45.3853720,-0.6,-2.9,-8.4,-0.6,-2.1,-5.8,8,8,
2026-03-10_00:56:14:974,0,21,763,989,32,24,167,26,1,0,19,0,2,-75.6987964,45.3853719,  32.8,   1.2,1.2, 0.1,1, 0.0,-75.6987964,45.3853719,-1.7,-3.3,-8.2,-0.8,-2.2,-5.8,8,8,
2026-03-10_00:56:15:074,0,22,763,986,32,24,151,26,0,0,19,0,2,-75.6987964,45.3853719,  32.8,   1.2,1.2, 0.1,1, 0.0,-75.6987964,45.3853719,-2.8,-3.6,-8.0,-0.7,-2.1,-5.8,8,8,
2026-03-10_00:56:15:174,0,22,763,990,32,24,155,26,7,0,19,0,2,-75.6987965,45.3853718,  32.8,   1.2,1.2, 0.1,1, 0.0,-75.6987965,45.3853718,-2.9,-3.2,-7.7,-0.7,-2.1,-5.7,8,8,
2026-03-10_00:56:15:274,0,22,763,990,32,24,155,26,7,0,19,0,2,-75.6987965,45.3853717,  32.8,   1.2,1.2, 0.1,1, 0.0,-75.6987965,45.3853717,-2.4,-2.2,-7.5,-0.7,-2.1,-5.8,8,8,
2026-03-10_00:56:15:374,0,20,763,980,32,24,164,26,3,0,19,0,2,-75.6987965,45.3853717,  32.8,   1.2,1.2, 0.0,1, 0.0,-75.6987965,45.3853717,-1.6,-1.1,-7.4,-0.7,-2.0,-5.9,8,8,
2026-03-10_00:56:15:474,0,19,763,978,32,24,167,26,1,0,19,0,2,-75.6987965,45.3853717,  32.8,   1.2,1.2, 0.0,1, 0.0,-75.6987965,45.3853717,-1.1,-1.4,-7.3,-0.7,-2.0,-5.9,8,8,
2026-03-10_00:56:15:574,0,20,763,985,32,24,160,26,9,0,19,0,2,-75.6987964,45.3853717,  32.8,   1.2,1.2, 0.1,1, 0.0,-75.6987964,45.3853717,-1.0,-2.5,-7.3,-0.7,-2.1,-5.8,8,8,
2026-03-10_00:56:15:674,0,24,763,976,32,24,155,26,2,0,19,0,2,-75.6987964,45.3853717,  32.8,   1.2,1.2, 0.1,1, 0.0,-75.6987964,45.3853717,-1.3,-3.3,-7.3,-0.7,-2.1,-5.9,8,8,
2026-03-10_00:56:15:774,0,28,763,990,32,24,158,26,3,0,19,0,2,-75.6987964,45.3853716,  32.8,   1.2,1.2, 0.1,1, 0.0,-75.6987964,45.3853716,-1.6,-3.4,-7.4,-0.7,-2.1,-5.8,8,8,
2026-03-10_00:56:15:874,0,23,763,984,32,24,169,26,2,0,19,0,2,-75.6987964,45.3853716,  32.8,   1.2,1.2, 0.0,1, 0.0,-75.6987964,45.3853716,-2.1,-3.3,-7.5,-0.7,-2.1,-5.8,8,8,
2026-03-10_00:56:15:974,0,22,763,978,32,23,160,26,1,0,19,0,2,-75.6987964,45.3853716,  32.8,   1.2,1.2, 0.0,1, 0.0,-75.6987964,45.3853716,-2.4,-3.2,-7.8,-0.7,-2.2,-5.9,8,8,
2026-03-10_00:56:16:075,0,22,763,978,32,23,160,26,1,0,19,0,2,-75.6987964,45.3853716,  32.8,   1.2,1.2, 0.0,1, 0.0,-75.6987964,45.3853716,-2.2,-3.3,-8.0,-0.7,-2.1,-5.8,8,8,
2026-03-10_00:56:16:175,0,25,763,985,32,24,157,26,3,0,19,0,2,-75.6987965,45.3853716,  32.8,   1.2,1.2, 0.0,1, 0.0,-75.6987965,45.3853716,-1.3,-3.5,-8.1,-0.6,-2.1,-5.8,8,8,
2026-03-10_00:56:16:275,0,23,763,986,32,24,158,26,2,0,19,0,2,-75.6987966,45.3853716,  32.8,   1.2,1.2, 0.1,1, 0.0,-75.6987966,45.3853716,-0.6,-3.4,-8.0,-0.7,-2.1,-5.9,8,8,
2026-03-10_00:56:16:375,0,22,763,984,32,24,173,26,1,0,19,0,2,-75.6987967,45.3853715,  32.8,   1.2,1.2, 0.1,1, 0.0,-75.6987967,45.3853715,-0.7,-2.7,-7.8,-0.6,-2.1,-5.8,8,8,
2026-03-10_00:56:16:475,0,16,763,975,32,24,166,26,0,0,19,0,2,-75.6987968,45.3853715,  32.8,   1.2,1.2, 0.1,1, 0.0,-75.6987968,45.3853715,-1.4,-1.5,-7.4,-0.7,-2.0,-5.9,8,8,
2026-03-10_00:56:16:575,0,14,763,986,32,24,154,26,2,0,19,0,2,-75.6987968,45.3853715,  32.8,   1.2,1.2, 0.1,1, 0.0,-75.6987968,45.3853715,-2.2,-0.8,-7.2,-0.7,-2.0,-5.8,8,8,
2026-03-10_00:56:16:675,0,13,763,990,32,24,157,26,4,0,19,0,2,-75.6987968,45.3853714,  32.8,   1.2,1.2, 0.0,0,92.5,-75.6989201,45.3861987,-2.8,-1.0,-7.1,-0.7,-2.0,-6.0,8,8,
2026-03-10_00:56:16:775,0,16,763,993,32,24,160,26,0,0,19,0,2,-75.6987968,45.3853714,  32.8,   1.2,1.2, 0.0,0,92.5,-75.6989160,45.3861990,-3.0,-1.8,-7.0,-0.7,-2.0,-5.8,8,8,
2026-03-10_00:56:16:875,0,16,763,993,32,24,160,26,0,0,19,0,2,-75.6987967,45.3853714,  32.8,   1.2,1.2, 0.0,0,92.5,-75.6989178,45.3861989,-2.9,-2.8,-6.9,-0.8,-2.2,-5.9,8,8,
2026-03-10_00:56:16:975,0,16,763,992,32,24,172,26,0,0,19,0,2,-75.6987967,45.3853715,  32.8,   1.2,1.2, 0.0,0,92.5,-75.6989179,45.3861989,-2.6,-3.2,-6.8,-0.7,-2.1,-5.9,8,8,
2026-03-10_00:56:17:075,0,19,763,983,32,24,164,26,6,0,19,0,2,-75.6987966,45.3853715,  32.8,   1.2,1.2, 0.0,0,92.5,-75.6989179,45.3861989,-2.2,-3.0,-6.9,-0.7,-2.1,-5.9,8,8,
2026-03-10_00:56:17:175,0,20,763,980,32,24,155,26,5,0,19,0,2,-75.6987966,45.3853715,  32.8,   1.2,1.2, 0.0,0,92.5,-75.6989178,45.3861989,-1.9,-2.4,-7.0,-0.8,-2.1,-5.9,8,8,
2026-03-10_00:56:17:275,0,19,763,980,32,24,157,26,0,0,19,0,2,-75.6987966,45.3853715,  32.8,   1.2,1.2, 0.1,0,92.5,-75.6989178,45.3861990,-1.8,-2.0,-7.1,-0.7,-2.0,-5.9,8,8,
2026-03-10_00:56:17:375,0,21,763,974,32,24,172,26,4,0,19,0,2,-75.6987966,45.3853716,  32.8,   1.2,1.2, 0.1,0,92.5,-75.6989178,45.3861990,-2.0,-2.4,-7.4,-0.7,-2.1,-5.9,8,8,
2026-03-10_00:56:17:475,0,28,763,987,32,24,170,26,4,0,19,0,2,-75.6987965,45.3853716,  32.8,   1.2,1.2, 0.1,0,92.5,-75.6989157,45.3861992,-2.2,-3.2,-7.6,-0.7,-2.1,-5.8,8,8,
2026-03-10_00:56:17:575,0,28,763,987,32,24,170,26,4,0,19,0,2,-75.6987965,45.3853716,  32.8,   1.2,1.2, 0.1,0,92.5,-75.6989156,45.3861992,-2.3,-3.9,-7.8,-0.7,-2.1,-5.8,8,8,
2026-03-10_00:56:17:675,0,36,763,990,32,24,154,26,2,0,19,0,2,-75.6987965,45.3853717,  32.7,   1.2,1.2, 0.1,0,92.5,-75.6989156,45.3861993,-1.9,-4.1,-7.9,-0.7,-2.2,-5.8,8,8,
2026-03-10_00:56:17:775,0,41,763,992,32,24,154,26,5,0,19,0,2,-75.6987965,45.3853717,  32.7,   1.2,1.2, 0.0,0,92.5,-75.6989177,45.3861991,-1.4,-3.9,-8.1,-0.7,-2.1,-5.9,8,8,
2026-03-10_00:56:17:875,0,46,763,993,32,24,160,26,1,0,19,0,2,-75.6987965,45.3853717,  32.7,   1.2,1.2, 0.1,0,92.5,-75.6989157,45.3861993,-0.9,-3.4,-8.1,-0.7,-2.1,-5.8,8,8,
2026-03-10_00:56:17:975,0,42,763,989,32,24,172,26,1,0,19,0,2,-75.6987966,45.3853718,  32.7,   1.2,1.2, 0.1,0,92.5,-75.6989178,45.3861992,-0.9,-2.9,-8.0,-0.7,-2.1,-5.9,8,8,
2026-03-10_00:56:18:076,0,31,763,990,32,24,164,26,6,0,19,0,2,-75.6987966,45.3853718,  32.7,   1.2,1.2, 0.1,0,92.5,-75.6989179,45.3861992,-1.2,-2.4,-7.7,-0.7,-2.1,-5.9,8,8,
2026-03-10_00:56:18:176,0,25,763,988,32,23,149,26,3,0,19,0,2,-75.6987967,45.3853718,  32.7,   1.2,1.2, 0.1,0,92.5,-75.6989159,45.3861994,-1.4,-1.8,-7.5,-0.7,-2.0,-5.8,8,8,
2026-03-10_00:56:18:276,0,23,763,986,32,24,157,26,4,0,19,0,2,-75.6987968,45.3853718,  32.7,   1.2,1.2, 0.0,0,92.5,-75.6989180,45.3861992,-1.5,-1.4,-7.2,-0.7,-2.0,-5.9,8,8,
2026-03-10_00:56:18:376,0,23,763,986,32,24,157,26,4,0,19,0,2,-75.6987968,45.3853718,  32.7,   1.2,1.2, 0.0,0,92.5,-75.6989179,45.3861992,-1.4,-1.1,-7.0,-0.8,-2.0,-5.9,8,8,
2026-03-10_00:56:18:476,0,22,764,990,32,24,172,26,2,0,19,0,2,-75.6987968,45.3853718,  32.7,   1.2,1.2, 0.0,0,92.5,-75.6989180,45.3861992,-1.4,-1.3,-6.9,-0.7,-2.0,-5.9,8,8,
2026-03-10_00:56:18:576,0,19,763,983,32,24,167,26,0,0,19,0,2,-75.6987967,45.3853718,  32.7,   1.2,1.2, 0.0,0,92.5,-75.6989179,45.3861992,-1.5,-2.2,-6.9,-0.7,-2.0,-5.9,8,8,
2026-03-10_00:56:18:676,0,24,763,991,32,24,160,26,6,0,19,0,2,-75.6987967,45.3853718,  32.7,   1.1,1.2, 0.0,0,92.4,-75.6989157,45.3861985,-1.5,-3.2,-7.0,-0.7,-2.2,-5.8,8,8,
2026-03-10_00:56:18:776,0,24,763,983,32,24,154,26,9,0,19,0,2,-75.6987966,45.3853718,  32.7,   1.1,1.2, 0.0,0,92.4,-75.6989156,45.3861985,-1.5,-3.7,-7.1,-0.7,-2.2,-5.8,8,8,
2026-03-10_00:56:18:876,0,25,763,985,32,24,160,26,2,0,19,0,2,-75.6987966,45.3853718,  32.7,   1.1,1.2, 0.0,0,92.4,-75.6989177,45.3861984,-1.2,-3.5,-7.3,-0.7,-2.1,-5.9,8,8,
2026-03-10_00:56:18:976,0,26,763,982,32,24,169,26,2,0,19,0,2,-75.6987966,45.3853719,  32.7,   1.1,1.2, 0.0,0,92.4,-75.6989157,45.3861986,-0.9,-2.9,-7.5,-0.7,-2.1,-5.8,8,8,
2026-03-10_00:56:19:076,0,25,763,975,32,24,169,26,3,0,19,0,2,-75.6987967,45.3853719,  32.7,   1.1,1.2, 0.0,0,92.4,-75.6989177,45.3861984,-0.9,-2.5,-7.6,-0.7,-2.1,-5.9,8,8,
2026-03-10_00:56:19:176,0,25,763,975,32,24,169,26,3,0,19,0,2,-75.6987967,45.3853719,  32.7,   1.1,1.2, 0.0,0,92.4,-75.6989178,45.3861984,-1.2,-2.5,-7.7,-0.7,-2.1,-5.9,8,8,
2026-03-10_00:56:19:276,0,25,763,985,32,24,154,26,0,0,19,0,2,-75.6987967,45.3853719,  32.7,   1.1,1.2, 0.0,0,92.4,-75.6989177,45.3861985,-1.6,-2.8,-7.7,-0.7,-2.1,-5.9,8,8,
2026-03-10_00:56:19:376,0,27,763,989,32,24,154,26,0,0,19,0,2,-75.6987967,45.3853720,  32.7,   1.1,1.2, 0.0,0,92.4,-75.6989177,45.3861985,-1.7,-3.0,-7.7,-0.7,-2.2,-5.9,8,8,
2026-03-10_00:56:19:476,0,33,763,994,32,24,163,26,7,0,19,0,2,-75.6987966,45.3853720,  32.7,   1.1,1.2, 0.0,0,92.4,-75.6989177,45.3861986,-1.5,-3.0,-7.8,-0.7,-2.2,-5.9,8,8,
2026-03-10_00:56:19:576,0,30,763,987,32,24,169,26,10,0,19,0,2,-75.6987967,45.3853721,  32.7,   1.1,1.2, 0.0,0,92.4,-75.6989177,45.3861986,-1.2,-2.9,-7.7,-0.7,-2.2,-5.9,8,8,
2026-03-10_00:56:19:677,0,32,763,989,32,24,172,26,6,0,19,0,2,-75.6987967,45.3853721,  32.7,   1.1,1.2, 0.0,1, 0.0,-75.6987967,45.3853721,-1.0,-2.8,-7.7,-0.7,-2.1,-5.9,8,8,
2026-03-10_00:56:19:777,0,38,763,993,32,24,154,26,8,0,19,0,2,-75.6987967,45.3853722,  32.7,   1.1,1.2, 0.0,1, 0.0,-75.6987967,45.3853722,-0.8,-2.8,-7.7,-0.7,-2.2,-5.8,8,8,
2026-03-10_00:56:19:877,0,37,763,990,32,23,154,26,10,0,19,0,2,-75.6987967,45.3853722,  32.7,   1.1,1.2, 0.0,1, 0.0,-75.6987967,45.3853722,-0.9,-2.7,-7.7,-0.7,-2.1,-5.7,8,8,
2026-03-10_00:56:19:977,0,37,763,990,32,23,154,26,10,0,19,0,2,-75.6987967,45.3853722,  32.7,   1.1,1.2, 0.0,1, 0.0,-75.6987967,45.3853722,-1.1,-2.6,-7.7,-0.7,-2.1,-5.8,8,8,
2026-03-10_00:56:20:077,0,37,763,991,32,24,173,26,1,0,19,0,2,-75.6987967,45.3853722,  32.7,   1.1,1.2, 0.0,1, 0.0,-75.6987967,45.3853722,-1.4,-2.6,-7.7,-0.7,-2.1,-5.9,8,8,
2026-03-10_00:56:20:177,0,38,763,992,32,24,170,26,0,0,19,0,2,-75.6987967,45.3853722,  32.7,   1.1,1.2, 0.0,1, 0.0,-75.6987967,45.3853722,-1.6,-2.7,-7.8,-0.7,-2.1,-5.9,8,8,
2026-03-10_00:56:20:277,0,38,764,994,32,24,163,26,3,0,19,0,2,-75.6987967,45.3853722,  32.7,   1.1,1.2, 0.0,1, 0.0,-75.6987967,45.3853722,-1.5,-2.9,-7.8,-0.7,-2.1,-5.9,8,8,
2026-03-10_00:56:20:377,0,40,763,994,32,24,155,26,3,0,19,0,2,-75.6987967,45.3853722,  32.7,   1.1,1.2, 0.0,1, 0.0,-75.6987967,45.3853722,-1.3,-2.9,-7.8,-0.7,-2.1,-5.9,8,8,
2026-03-10_00:56:20:477,0,39,763,988,32,24,160,26,5,0,19,0,2,-75.6987967,45.3853723,  32.7,   1.1,1.2, 0.0,1, 0.0,-75.6987967,45.3853723,-1.1,-2.7,-7.8,-0.7,-2.2,-5.9,8,8,
2026-03-10_00:56:20:577,0,39,763,991,32,24,167,26,5,0,19,0,2,-75.6987967,45.3853723,  32.7,   1.1,1.2, 0.0,1, 0.0,-75.6987967,45.3853723,-1.0,-2.6,-7.9,-0.7,-2.1,-5.9,8,8,
2026-03-10_00:56:20:677,0,39,763,991,32,24,167,26,5,0,19,0,2,-75.6987968,45.3853723,  32.7,   1.1,1.2, 0.0,1, 0.0,-75.6987968,45.3853723,-1.0,-2.5,-7.9,-0.7,-2.2,-5.8,8,8,
2026-03-10_00:56:20:777,0,38,763,989,32,24,167,26,1,0,19,0,2,-75.6987968,45.3853723,  32.7,   1.1,1.2, 0.0,1, 0.0,-75.6987968,45.3853723,-1.1,-2.4,-7.9,-0.7,-2.1,-5.8,8,8,
2026-03-10_00:56:20:877,0,39,763,990,32,24,154,26,2,0,19,0,2,-75.6987968,45.3853723,  32.7,   1.1,1.2, 0.0,1, 0.0,-75.6987968,45.3853723,-1.2,-2.4,-7.9,-0.7,-2.1,-5.8,8,8,
2026-03-10_00:56:20:977,0,41,763,992,32,24,157,26,2,0,19,0,2,-75.6987968,45.3853722,  32.7,   1.1,1.2, 0.0,1, 0.0,-75.6987968,45.3853722,-1.2,-2.5,-7.9,-0.7,-2.1,-5.9,8,8,
2026-03-10_00:56:21:077,0,45,763,993,32,24,169,26,1,0,19,0,2,-75.6987967,45.3853723,  32.7,   1.1,1.2, 0.0,1, 0.0,-75.6987967,45.3853723,-1.2,-2.8,-7.9,-0.7,-2.1,-5.9,8,8,
2026-03-10_00:56:21:177,0,48,763,993,32,24,167,26,3,0,19,0,2,-75.6987967,45.3853723,  32.7,   1.1,1.2, 0.0,1, 0.0,-75.6987967,45.3853723,-1.0,-3.1,-7.9,-0.7,-2.1,-5.9,8,8,
2026-03-10_00:56:21:377,1551,51,763,993,32,24,154,26,22,0,19,0,2,-75.6987967,45.3853723,  32.7,   1.1,1.2, 0.0,1, 0.0,-75.6987967,45.3853723,-1.0,-2.1,-7.7,-0.7,-2.1,-5.8,8,8,
2026-03-10_00:56:21:477,1551,51,763,993,32,24,154,26,22,0,19,0,2,-75.6987967,45.3853723,  32.7,   1.1,1.2, 0.0,1, 0.0,-75.6987967,45.3853723,-1.1,-1.5,-7.5,-0.7,-2.0,-5.9,8,8,
2026-03-10_00:56:21:577,0,49,763,992,32,24,160,26,9,0,19,0,2,-75.6987967,45.3853724,  32.7,   1.1,1.2, 0.1,1, 0.0,-75.6987967,45.3853724,-1.3,-2.4,-2.3,-0.7,-2.0,-5.7,8,8,
2026-03-10_00:56:21:678,0,56,763,994,32,24,170,26,1,0,19,0,2,-75.6987966,45.3853724,  32.7,   1.1,1.2, 0.0,0,92.7,-75.6989139,45.3862019,-1.1,-4.1, 4.3,-0.7,-2.2,-5.7,8,8,
2026-03-10_00:56:21:778,293,82,763,992,32,24,169,26,5,0,19,0,2,-75.6987966,45.3853724,  32.7,   1.1,1.2, 0.0,0,92.7,-75.6989161,45.3862018,-0.5,-4.2, 9.7,-0.6,-2.1,-5.8,8,8,
2026-03-10_00:56:21:878,352,87,763,993,32,23,151,26,6,0,19,0,2,-75.6987966,45.3853724,  32.7,   1.1,1.2, 0.0,0,92.7,-75.6989182,45.3862017,-0.2,-2.7,13.4,-0.6,-2.1,-5.9,8,8,
2026-03-10_00:56:21:978,227,86,763,995,32,24,157,26,4,0,19,0,2,-75.6987966,45.3853725,  32.7,   1.1,1.2, 0.0,0,92.7,-75.6989203,45.3862016,-0.4,-1.2,15.3,-0.5,-2.0,-6.0,8,8,
2026-03-10_00:56:22:078,242,94,763,989,32,24,170,26,4,0,19,0,2,-75.6987966,45.3853725,  32.7,   1.1,1.2, 0.0,0,92.7,-75.6989202,45.3862016,-0.6,-0.7,16.1,-0.7,-2.0,-6.0,8,8,
2026-03-10_00:56:22:178,792,53,763,992,32,24,169,26,7,0,19,0,2,-75.6987967,45.3853723,  32.7,   1.1,1.2, 0.0,0,92.7,-75.6987967,45.3853723,-0.6,-1.4,16.3,-0.6,-2.0,-6.0,8,8,20260310_005622.jpg
2026-03-10_00:56:22:278,259,100,763,992,32,24,169,26,7,0,19,0,2,-75.6987964,45.3853725,  32.7,   1.1,1.2, 0.1,0,92.7,-75.6989180,45.3862017,-0.6,-2.6,16.3,-0.6,-2.0,-5.9,8,8,
2026-03-10_00:56:22:378,91,108,763,992,32,24,163,26,1,0,19,0,2,-75.6987964,45.3853725,  32.7,   1.1,1.2, 0.1,0,92.7,-75.6989200,45.3862015,-0.5,-3.4,16.1,-0.6,-2.1,-6.0,8,8,
2026-03-10_00:56:22:478,502,109,763,990,32,24,155,26,9,0,19,0,2,-75.6987964,45.3853724,  32.7,   1.1,1.2, 0.0,0,92.7,-75.6989200,45.3862015,-0.5,-3.6,16.0,-0.6,-2.1,-6.0,8,8,
2026-03-10_00:56:22:578,3,110,763,996,32,24,161,26,0,0,19,0,2,-75.6987964,45.3853724,  32.7,   1.1,1.2, 0.0,0,92.7,-75.6989178,45.3862016,-0.5,-3.3,15.9,-0.7,-2.1,-5.9,8,8,
2026-03-10_00:56:22:678,264,111,763,995,32,24,169,26,7,0,19,0,2,-75.6987964,45.3853724,  32.7,   1.1,1.2, 0.0,0,92.7,-75.6989178,45.3862016,-0.5,-3.0,15.7,-0.7,-2.1,-5.9,8,8,
2026-03-10_00:56:22:778,440,107,763,996,32,24,166,26,6,0,19,0,2,-75.6987964,45.3853724,  32.7,   1.1,1.2, 0.0,0,92.7,-75.6989180,45.3862016,-0.5,-2.8,15.7,-0.6,-2.1,-5.9,8,8,
2026-03-10_00:56:22:878,190,106,763,994,32,24,154,26,3,0,19,0,2,-75.6987965,45.3853723,  32.7,   1.1,1.2, 0.0,0,92.7,-75.6989200,45.3862014,-0.5,-2.7,15.6,-0.7,-2.1,-6.0,8,8,
2026-03-10_00:56:22:978,190,106,763,994,32,24,154,26,3,0,19,0,2,-75.6987965,45.3853723,  32.7,   1.1,1.2, 0.0,0,92.7,-75.6989201,45.3862014,-0.7,-2.8,15.6,-0.6,-2.1,-6.0,8,8,
2026-03-10_00:56:23:078,0,107,763,991,32,24,160,26,0,0,19,0,2,-75.6987966,45.3853723,  32.7,   1.1,1.2, 0.0,0,92.7,-75.6989201,45.3862014,-0.8,-2.7,15.7,-0.7,-2.1,-6.0,8,8,
2026-03-10_00:56:23:178,193,108,763,992,32,24,175,26,4,0,19,0,2,-75.6987966,45.3853723,  32.7,   1.1,1.2, 0.0,0,92.7,-75.6989200,45.3862014,-0.9,-2.6,15.7,-0.8,-2.1,-6.0,8,8,
2026-03-10_00:56:23:278,349,106,763,992,32,24,170,26,9,0,19,0,2,-75.6987966,45.3853723,  32.7,   1.1,1.2, 0.0,0,92.7,-75.6989181,45.3862015,-0.9,-2.6,15.7,-0.7,-2.1,-5.9,8,8,
2026-03-10_00:56:23:379,185,108,763,994,32,24,154,26,3,0,19,0,2,-75.6987966,45.3853723,  32.7,   1.1,1.2, 0.0,0,92.7,-75.6989201,45.3862014,-0.8,-2.6,15.7,-0.7,-2.1,-6.0,8,8,
2026-03-10_00:56:23:479,184,107,763,995,32,24,160,26,3,0,19,0,2,-75.6987966,45.3853723,  32.7,   1.1,1.2, 0.0,0,92.7,-75.6989202,45.3862014,-0.7,-2.5,15.8,-0.7,-2.1,-6.0,8,8,
2026-03-10_00:56:23:579,79,106,763,994,32,24,169,26,0,0,19,0,2,-75.6987966,45.3853723,  32.7,   1.1,1.2, 0.0,0,92.7,-75.6989182,45.3862016,-0.7,-2.5,15.8,-0.6,-2.1,-5.9,8,8,
2026-03-10_00:56:23:679,363,108,763,995,32,24,167,26,5,0,19,0,2,-75.6987966,45.3853724,  32.7,   1.2,1.2, 0.0,0,92.7,-75.6989203,45.3862015,-0.7,-2.5,15.9,-0.6,-2.1,-6.0,8,8,
2026-03-10_00:56:23:779,363,108,763,995,32,24,167,26,5,0,19,0,2,-75.6987967,45.3853724,  32.7,   1.2,1.2, 0.0,0,93.0,-75.6989207,45.3862042,-0.6,-2.5,15.9,-0.6,-2.2,-6.0,8,8,
2026-03-10_00:56:23:879,348,111,763,995,32,24,166,26,6,0,19,0,2,-75.6987967,45.3853724,  32.7,   1.2,1.2, 0.0,0,93.0,-75.6989186,45.3862043,-0.6,-2.5,15.9,-0.6,-2.1,-5.9,8,8,
2026-03-10_00:56:23:979,0,110,763,993,32,24,160,26,2,0,19,0,2,-75.6987967,45.3853724,  32.7,   1.2,1.2, 0.0,0,93.0,-75.6989186,45.3862043,-0.6,-2.5,15.9,-0.6,-2.2,-5.9,8,8,
2026-03-10_00:56:24:079,0,108,763,995,32,24,161,26,0,0,19,0,2,-75.6987967,45.3853724,  32.7,   1.2,1.2, 0.0,0,93.0,-75.6989186,45.3862043,-0.6,-2.5,15.9,-0.6,-2.1,-5.9,8,8,
2026-03-10_00:56:24:279,430,106,763,994,32,24,163,26,9,0,19,0,2,-75.6987967,45.3853724,  32.7,   1.2,1.2, 0.0,0,93.0,-75.6989207,45.3862041,-0.7,-2.5,15.8,-0.6,-2.2,-6.0,8,8,
2026-03-10_00:56:24:379,500,104,763,993,32,24,157,26,11,0,19,0,2,-75.6987967,45.3853724,  32.7,   1.2,1.2, 0.0,0,93.0,-75.6989207,45.3862041,-0.8,-2.5,15.8,-0.7,-2.1,-6.0,8,8,
2026-03-10_00:56:24:479,458,106,763,994,32,24,160,26,9,0,19,0,2,-75.6987968,45.3853723,  32.7,   1.2,1.2, 0.0,0,93.0,-75.6989207,45.3862041,-0.8,-2.5,15.8,-0.7,-2.1,-6.0,8,8,
2026-03-10_00:56:24:579,458,106,763,994,32,24,160,26,9,0,19,0,2,-75.6987968,45.3853723,  32.7,   1.2,1.2, 0.0,0,93.0,-75.6989207,45.3862041,-0.7,-2.5,15.8,-0.7,-2.1,-6.0,8,8,
2026-03-10_00:56:24:679,249,102,763,994,32,24,173,26,4,0,19,0,2,-75.6987968,45.3853723,  32.7,   1.2,1.2, 0.0,0,93.0,-75.6989187,45.3862042,-0.6,-2.5,15.8,-0.6,-2.1,-5.9,8,8,
2026-03-10_00:56:24:779,560,102,763,992,32,24,169,26,13,0,19,0,2,-75.6987968,45.3853723,  32.7,   1.2,1.2, 0.0,0,93.0,-75.6989208,45.3862040,-0.6,-2.6,15.8,-0.6,-2.1,-6.0,8,8,
2026-03-10_00:56:24:879,656,98,763,994,32,24,157,26,12,0,19,0,2,-75.6987968,45.3853722,  32.7,   1.2,1.2, 0.0,0,93.0,-75.6989208,45.3862040,-0.7,-2.7,15.8,-0.6,-2.1,-6.0,8,8,
2026-03-10_00:56:24:980,516,96,763,993,32,24,157,26,7,0,19,0,2,-75.6987968,45.3853722,  32.7,   1.2,1.2, 0.0,0,93.0,-75.6989207,45.3862040,-0.8,-2.7,15.8,-0.7,-2.1,-6.0,8,8,
2026-03-10_00:56:25:080,386,94,763,993,32,24,166,26,6,0,19,0,2,-75.6987968,45.3853722,  32.7,   1.2,1.2, 0.0,0,93.0,-75.6989186,45.3862041,-0.8,-2.6,15.8,-0.7,-2.1,-5.9,8,8,
2026-03-10_00:56:25:180,453,106,763,993,32,24,170,26,0,0,19,0,2,-75.6987967,45.3853724,  32.7,   1.2,1.2, 0.0,0,93.0,-75.6989208,45.3862041,-0.8,-2.6,15.8,-0.8,-2.1,-5.9,8,8,20260310_005625.jpg
2026-03-10_00:56:25:280,0,91,763,996,32,24,164,26,1,0,19,0,2,-75.6987968,45.3853722,  32.7,   1.2,1.2, 0.0,0,93.0,-75.6989206,45.3862039,-0.8,-2.6,15.8,-0.8,-2.1,-6.0,8,8,
2026-03-10_00:56:25:380,0,91,763,996,32,24,164,26,1,0,19,0,2,-75.6987968,45.3853721,  32.7,   1.2,1.2, 0.0,0,93.0,-75.6989206,45.3862039,-0.8,-2.6,15.8,-0.8,-2.1,-6.0,8,8,
2026-03-10_00:56:25:480,0,91,763,995,32,24,157,26,2,0,19,0,2,-75.6987967,45.3853721,  32.7,   1.2,1.2, 0.0,0,93.0,-75.6989206,45.3862039,-0.8,-2.7,15.8,-0.8,-2.1,-6.0,8,8,
2026-03-10_00:56:25:580,0,87,763,993,32,24,160,26,2,0,19,0,2,-75.6987967,45.3853721,  32.7,   1.2,1.2, 0.0,0,92.8,-75.6989203,45.3862020,-0.8,-2.7,15.8,-0.8,-2.2,-6.0,8,8,
2026-03-10_00:56:25:680,99,84,763,993,32,24,172,26,0,0,19,0,2,-75.6987967,45.3853721,  32.8,   1.2,1.2, 0.0,0,92.8,-75.6989203,45.3862020,-0.8,-2.7,15.8,-0.8,-2.1,-6.0,8,8,
2026-03-10_00:56:25:780,59,82,763,993,32,24,167,26,0,0,19,0,2,-75.6987967,45.3853721,  32.8,   1.2,1.2, 0.0,0,92.8,-75.6989204,45.3862020,-0.7,-2.7,15.8,-0.7,-2.1,-6.0,8,8,
2026-03-10_00:56:25:880,0,82,763,992,32,24,155,26,0,0,19,0,2,-75.6987967,45.3853720,  32.8,   1.2,1.2, 0.0,0,92.8,-75.6989204,45.3862020,-0.7,-2.7,15.8,-0.7,-2.1,-6.0,8,8,
2026-03-10_00:56:25:980,353,81,763,993,32,23,158,26,4,0,19,0,2,-75.6987967,45.3853720,  32.8,   1.2,1.2, 0.0,0,92.8,-75.6989204,45.3862020,-0.7,-2.6,15.8,-0.7,-2.1,-6.0,8,8,
2026-03-10_00:56:26:080,353,81,763,993,32,23,158,26,4,0,19,0,2,-75.6987967,45.3853720,  32.8,   1.2,1.2, 0.0,0,92.8,-75.6989204,45.3862020,-0.8,-2.6,15.8,-0.7,-2.1,-6.0,8,8,
2026-03-10_00:56:26:181,440,79,763,994,32,24,175,26,6,0,19,0,2,-75.6987967,45.3853720,  32.8,   1.2,1.2, 0.0,0,92.8,-75.6989205,45.3862020,-0.8,-2.6,15.8,-0.6,-2.1,-6.0,8,8,
2026-03-10_00:56:26:281,12,76,763,993,32,24,172,26,0,0,19,0,2,-75.6987967,45.3853720,  32.8,   1.2,1.2, 0.0,0,92.8,-75.6989204,45.3862020,-0.7,-2.6,15.8,-0.7,-2.1,-6.0,8,8,
2026-03-10_00:56:26:381,221,76,763,993,32,24,155,26,2,0,19,0,2,-75.6987967,45.3853720,  32.8,   1.2,1.2, 0.0,0,92.8,-75.6989205,45.3862020,-0.6,-2.6,15.8,-0.6,-2.1,-6.0,8,8,
2026-03-10_00:56:26:481,205,71,763,994,32,24,160,26,3,0,19,0,2,-75.6987967,45.3853720,  32.8,   1.2,1.2, 0.0,0,92.8,-75.6989205,45.3862020,-0.5,-2.7,15.7,-0.6,-2.1,-6.0,8,8,
2026-03-10_00:56:26:581,701,70,763,993,32,24,172,26,9,0,19,0,2,-75.6987968,45.3853720,  32.8,   1.2,1.2, 0.0,0,92.7,-75.6989204,45.3862011,-0.1,-2.6,15.6,-0.6,-2.1,-6.0,8,8,
2026-03-10_00:56:26:681,262,63,763,993,32,24,172,26,2,0,19,0,2,-75.6987968,45.3853720,  32.8,   1.3,1.2, 0.0,0,92.7,-75.6989203,45.3862011, 0.1,-2.6,15.6,-0.7,-2.1,-6.0,8,8,
2026-03-10_00:56:26:781,273,64,763,991,32,24,167,26,3,0,19,0,2,-75.6987968,45.3853720,  32.8,   1.3,1.2, 0.0,0,92.7,-75.6989183,45.3862013,-0.2,-2.6,15.5,-0.6,-2.1,-5.9,8,8,
2026-03-10_00:56:26:881,273,64,763,991,32,24,167,26,3,0,19,0,2,-75.6987968,45.3853720,  32.8,   1.3,1.2, 0.0,0,92.7,-75.6989204,45.3862011,-0.7,-2.6,15.5,-0.6,-2.1,-6.0,8,8,
2026-03-10_00:56:26:982,700,66,763,993,32,24,160,26,9,0,19,0,2,-75.6987968,45.3853719,  32.8,   1.3,1.2, 0.0,0,92.7,-75.6989203,45.3862010,-1.1,-2.7,15.5,-0.7,-2.1,-6.0,8,8,
2026-03-10_00:56:27:082,596,64,763,994,32,24,163,26,9,0,19,0,2,-75.6987968,45.3853719,  32.8,   1.3,1.2, 0.0,0,92.7,-75.6989203,45.3862010,-1.1,-2.7,15.5,-0.7,-2.1,-6.0,8,8,
2026-03-10_00:56:27:282,249,59,763,994,32,24,166,26,2,0,19,0,2,-75.6987968,45.3853719,  32.8,   1.3,1.2, 0.0,0,92.7,-75.6989204,45.3862010,-0.5,-2.7,15.5,-0.6,-2.1,-6.0,8,8,
2026-03-10_00:56:27:382,441,58,763,993,32,24,158,26,7,0,19,0,2,-75.6987968,45.3853719,  32.8,   1.3,1.2, 0.0,0,92.7,-75.6989204,45.3862010,-0.3,-2.6,15.5,-0.6,-2.1,-6.0,8,8,
2026-03-10_00:56:27:482,50,56,763,989,32,24,160,26,0,0,19,0,2,-75.6987968,45.3853719,  32.8,   1.3,1.2, 0.0,0,92.7,-75.6989204,45.3862009,-0.5,-2.5,15.5,-0.6,-2.1,-6.0,8,8,
2026-03-10_00:56:27:582,480,55,763,989,32,23,172,26,5,0,19,0,2,-75.6987968,45.3853718,  32.8,   1.3,1.2, 0.0,0,92.8,-75.6989206,45.3862018,-0.7,-2.5,15.6,-0.6,-2.1,-6.0,8,8,
2026-03-10_00:56:27:682,480,55,763,989,32,23,172,26,5,0,19,0,2,-75.6987968,45.3853718,  32.9,   1.3,1.2, 0.0,0,92.8,-75.6989205,45.3862018,-0.8,-2.5,15.6,-0.7,-2.1,-6.0,8,8,
2026-03-10_00:56:27:782,0,49,763,991,32,24,172,26,5,0,19,0,2,-75.6987968,45.3853718,  32.9,   1.3,1.2, 0.0,0,92.8,-75.6989205,45.3862018,-0.8,-2.5,15.7,-0.7,-2.1,-6.0,8,8,
2026-03-10_00:56:27:882,0,44,763,987,32,24,157,26,3,0,19,0,2,-75.6987968,45.3853718,  32.9,   1.3,1.2, 0.0,0,92.8,-75.6989205,45.3862018,-0.8,-2.6,15.7,-0.7,-2.1,-6.0,8,8,
2026-03-10_00:56:27:983,0,42,763,991,32,24,160,26,10,0,19,0,2,-75.6987968,45.3853718,  32.9,   1.3,1.2, 0.0,0,92.8,-75.6989205,45.3862017,-0.7,-2.7,15.7,-0.7,-2.1,-6.0,8,8,
2026-03-10_00:56:28:083,0,39,763,987,32,24,166,26,3,0,19,0,2,-75.6987968,45.3853718,  32.9,   1.3,1.2, 0.0,0,92.8,-75.6989205,45.3862018,-0.6,-2.8,15.7,-0.6,-2.1,-6.0,8,8,
2026-03-10_00:56:28:183,443,60,763,987,32,24,170,25,9,0,19,0,2,-75.6987968,45.3853719,  32.9,   1.3,1.2, 0.0,0,92.8,-75.6989203,45.3862010,-0.4,-2.8,15.7,-0.6,-2.1,-6.0,8,8,20260310_005628.jpg
2026-03-10_00:56:28:283,0,35,763,994,32,24,161,26,4,0,19,0,2,-75.6987968,45.3853718,  32.9,   1.3,1.2, 0.0,0,92.8,-75.6989205,45.3862017,-0.4,-2.8,15.7,-0.6,-2.1,-6.0,8,8,
2026-03-10_00:56:28:383,0,35,763,991,32,24,157,26,3,0,19,0,2,-75.6987967,45.3853718,  32.9,   1.3,1.2, 0.0,0,92.8,-75.6989205,45.3862018,-0.4,-2.8,15.7,-0.6,-2.1,-6.0,8,8,
2026-03-10_00:56:28:483,0,35,763,991,32,24,157,26,3,0,19,0,2,-75.6987968,45.3853718,  32.9,   1.3,1.2, 0.0,0,92.8,-75.6989205,45.3862018,-0.6,-2.7,15.7,-0.6,-2.1,-6.0,8,8,
2026-03-10_00:56:28:583,0,32,763,985,32,24,161,25,0,0,19,0,2,-75.6987968,45.3853718,  32.9,   1.3,1.2, 0.0,0,92.8,-75.6989204,45.3862017,-0.8,-2.6,15.7,-0.7,-2.2,-6.0,8,8,
2026-03-10_00:56:28:683,0,32,763,988,32,24,172,26,2,0,19,0,2,-75.6987968,45.3853718,  32.9,   1.3,1.2, 0.0,0,92.5,-75.6989200,45.3861990,-0.9,-2.4,15.6,-0.8,-2.1,-6.0,8,8,
2026-03-10_00:56:28:783,0,31,763,980,32,24,169,25,2,0,19,0,2,-75.6987968,45.3853717,  32.9,   1.3,1.2, 0.0,0,92.5,-75.6989201,45.3861990,-0.9,-2.4,15.6,-0.7,-2.1,-6.0,8,8,
2026-03-10_00:56:28:883,0,32,763,989,32,23,154,26,2,0,19,0,2,-75.6987968,45.3853718,  32.9,   1.3,1.2, 0.0,0,92.5,-75.6989180,45.3861992,-0.7,-2.4,15.6,-0.7,-2.1,-5.9,8,8,
2026-03-10_00:56:28:984,0,29,763,988,32,24,160,25,4,0,19,0,2,-75.6987968,45.3853718,  32.9,   1.3,1.2, 0.0,0,92.5,-75.6989181,45.3861992,-0.5,-2.5,15.6,-0.6,-2.1,-5.9,8,8,
2026-03-10_00:56:29:084,0,27,763,989,32,24,175,25,4,0,19,0,2,-75.6987968,45.3853718,  32.9,   1.3,1.2, 0.0,0,92.5,-75.6989180,45.3861992,-0.4,-2.6,15.6,-0.7,-2.1,-5.9,8,8,
2026-03-10_00:56:29:184,0,27,763,989,32,24,175,25,4,0,19,0,2,-75.6987968,45.3853718,  32.9,   1.3,1.2, 0.0,0,92.5,-75.6989201,45.3861991,-0.4,-2.7,15.7,-0.6,-2.1,-6.0,8,8,
2026-03-10_00:56:29:284,0,27,763,986,32,24,173,26,0,0,19,0,2,-75.6987968,45.3853718,  32.9,   1.3,1.2, 0.0,0,92.5,-75.6989201,45.3861991,-0.6,-2.7,15.7,-0.6,-2.1,-6.0,8,8,
2026-03-10_00:56:29:384,0,25,763,984,32,24,155,26,0,0,19,0,2,-75.6987968,45.3853718,  32.9,   1.3,1.2, 0.0,0,92.5,-75.6989181,45.3861992,-0.7,-2.7,15.7,-0.6,-2.1,-5.9,8,8,
2026-03-10_00:56:29:484,0,25,763,976,32,24,160,25,3,0,19,0,2,-75.6987968,45.3853717,  32.9,   1.3,1.2, 0.0,0,92.5,-75.6989181,45.3861992,-0.8,-2.6,15.7,-0.7,-2.1,-5.9,8,8,
2026-03-10_00:56:29:584,0,27,763,985,32,24,175,25,7,0,19,0,2,-75.6987969,45.3853717,  32.9,   1.3,1.2, 0.0,0,92.5,-75.6989201,45.3861990,-0.8,-2.5,15.7,-0.8,-2.1,-6.0,8,8,
2026-03-10_00:56:29:684,0,26,763,993,32,24,170,25,0,0,19,0,2,-75.6987969,45.3853717,  32.9,   1.3,1.2, 0.0,0,92.4,-75.6989200,45.3861981,-0.7,-2.6,15.8,-0.7,-2.1,-6.0,8,8,
2026-03-10_00:56:29:785,0,26,763,991,32,24,167,25,2,0,19,0,2,-75.6987969,45.3853717,  32.9,   1.3,1.2, 0.0,0,92.4,-75.6989201,45.3861981,-0.6,-2.6,15.8,-0.6,-2.1,-6.0,8,8,
2026-03-10_00:56:29:884,0,24,763,986,32,24,157,26,0,0,19,0,2,-75.6987969,45.3853717,  32.9,   1.3,1.2, 0.0,0,92.4,-75.6989201,45.3861981,-0.6,-2.5,15.8,-0.6,-2.1,-6.0,8,8,
2026-03-10_00:56:29:985,0,24,763,986,32,24,157,26,0,0,19,0,2,-75.6987969,45.3853717,  32.9,   1.3,1.2, 0.0,0,92.4,-75.6989202,45.3861981,-0.7,-2.3,15.8,-0.6,-2.1,-6.0,8,8,
2026-03-10_00:56:30:085,0,22,763,984,32,24,166,25,2,0,19,0,2,-75.6987970,45.3853717,  32.9,   1.3,1.2, 0.0,0,92.4,-75.6989201,45.3861981,-0.8,-2.3,15.8,-0.7,-2.1,-6.0,8,8,
2026-03-10_00:56:30:185,0,21,763,985,32,24,175,25,1,0,19,0,2,-75.6987970,45.3853717,  32.9,   1.3,1.2, 0.0,0,92.4,-75.6989201,45.3861981,-0.8,-2.4,15.8,-0.7,-2.1,-6.0,8,8,
2026-03-10_00:56:30:285,0,20,763,984,32,24,169,25,6,0,19,0,2,-75.6987970,45.3853717,  32.9,   1.3,1.2, 0.0,0,92.4,-75.6989202,45.3861981,-0.7,-2.6,15.7,-0.6,-2.2,-6.0,8,8,
2026-03-10_00:56:30:385,0,21,763,983,32,24,160,25,3,0,19,0,2,-75.6987970,45.3853717,  32.9,   1.3,1.2, 0.0,0,92.4,-75.6989182,45.3861983,-0.5,-2.6,15.7,-0.6,-2.1,-5.9,8,8,
2026-03-10_00:56:30:485,0,19,763,983,32,24,161,25,0,0,19,0,2,-75.6987971,45.3853717,  32.9,   1.3,1.2, 0.0,0,92.4,-75.6989203,45.3861981,-0.4,-2.5,15.7,-0.6,-2.1,-6.0,8,8,
2026-03-10_00:56:30:585,0,19,763,981,32,24,173,25,6,0,19,0,2,-75.6987971,45.3853717,  32.9,   1.3,1.2, 0.0,0,92.4,-75.6989202,45.3861981,-0.6,-2.3,15.7,-0.7,-2.1,-6.0,8,8,
2026-03-10_00:56:30:685,0,20,763,986,32,24,172,25,0,0,19,0,2,-75.6987971,45.3853717,  32.9,   1.4,1.2, 0.0,0,92.5,-75.6989184,45.3861991,-0.7,-2.3,15.7,-0.6,-2.2,-5.9,8,8,
2026-03-10_00:56:30:785,0,20,763,986,32,24,172,25,0,0,19,0,2,-75.6987971,45.3853717,  32.9,   1.4,1.2, 0.0,0,92.5,-75.6989183,45.3861991,-0.8,-2.3,15.7,-0.7,-2.1,-5.9,8,8,
2026-03-10_00:56:30:885,0,19,763,982,32,24,160,25,3,0,19,0,2,-75.6987971,45.3853717,  32.9,   1.4,1.2, 0.0,0,92.5,-75.6989204,45.3861990,-0.9,-2.3,15.7,-0.7,-2.1,-6.0,8,8,
2026-03-10_00:56:30:985,0,19,763,976,32,24,163,25,6,0,19,0,2,-75.6987971,45.3853717,  32.9,   1.4,1.2, 0.0,0,92.5,-75.6989204,45.3861990,-1.0,-2.4,15.8,-0.7,-2.1,-6.0,8,8,
2026-03-10_00:56:31:085,0,16,763,973,32,24,176,25,1,0,19,0,2,-75.6987972,45.3853717,  32.9,   1.4,1.2, 0.0,0,92.5,-75.6989203,45.3861989,-1.0,-2.4,15.8,-0.8,-2.2,-6.0,8,8,
2026-03-10_00:56:31:185,0,17,763,981,32,24,172,25,6,0,19,0,2,-75.6987972,45.3853717,  32.9,   1.4,1.2, 0.0,0,92.5,-75.6989204,45.3861990,-0.9,-2.3,15.8,-0.8,-2.1,-6.0,8,8,
2026-03-10_00:56:31:285,0,16,763,949,32,24,163,25,10,0,19,0,2,-75.6987972,45.3853717,  32.9,   1.4,1.2, 0.0,0,92.5,-75.6989204,45.3861990,-0.8,-2.3,15.7,-0.7,-2.1,-6.0,8,8,
2026-03-10_00:56:31:385,0,17,763,992,32,24,161,25,5,0,19,0,2,-75.6987972,45.3853717,  32.9,   1.4,1.2, 0.0,0,92.5,-75.6989204,45.3861990,-0.7,-2.2,15.7,-0.7,-2.1,-6.0,8,8,
2026-03-10_00:56:31:486,0,15,763,984,32,24,169,25,1,0,19,0,2,-75.6987972,45.3853717,  32.9,   1.4,1.2, 0.0,0,92.5,-75.6989184,45.3861991,-0.7,-2.2,15.7,-0.7,-2.1,-5.9,8,8,
2026-03-10_00:56:31:586,0,15,763,984,32,24,169,25,1,0,19,0,2,-75.6987971,45.3853717,  32.9,   1.4,1.2, 0.0,0,92.5,-75.6989184,45.3861992,-0.7,-2.2,15.7,-0.6,-2.1,-5.9,8,8,
2026-03-10_00:56:31:686,0,14,763,973,32,24,175,25,1,0,19,0,2,-75.6987971,45.3853717,  32.9,   1.4,1.2, 0.0,0,92.2,-75.6989180,45.3861965,-0.7,-2.2,15.7,-0.7,-2.1,-5.9,8,8,
2026-03-10_00:56:31:786,0,13,763,952,32,24,167,25,1,0,19,0,2,-75.6987971,45.3853717,  32.9,   1.4,1.2, 0.0,0,92.2,-75.6989201,45.3861963,-0.7,-2.3,15.7,-0.6,-2.1,-6.0,8,8,
2026-03-10_00:56:31:886,0,12,763,965,32,24,160,25,0,0,19,0,2,-75.6987971,45.3853717,  32.9,   1.4,1.2, 0.0,0,92.2,-75.6989200,45.3861963,-0.7,-2.4,15.7,-0.7,-2.1,-6.0,8,8,
2026-03-10_00:56:31:986,0,13,763,968,32,24,166,25,0,0,19,0,2,-75.6987971,45.3853717,  32.9,   1.4,1.2, 0.0,0,92.2,-75.6989159,45.3861966,-0.8,-2.4,15.7,-0.7,-2.1,-5.8,8,8,
